[{"name":"Starbucks","distance":444,"country":"United States","city":"San Mateo","latitude":37.56289,"longitude":-122.324005,"coordinates":{"type":"Point","coordinates":[-122.324005,37.56289]},"category":"Coffee Shop","score":70.0},{"name":"Starbucks","distance":1665,"country":"United States","city":"San Mateo","latitude":37.5798265158,"longitude":-122.3333638737,"coordinates":{"type":"Point","coordinates":[-122.3333638737,37.5798265158]},"category":"Coffee Shop","score":10.0},{"name":"Starbucks","distance":1853,"country":"United States","city":"San Mateo","latitude":37.55226034,"longitude":-122.3138416,"coordinates":{"type":"Point","coordinates":[-122.3138416,37.55226034]},"category":"Coffee Shop","score":10.0},{"name":"Starbucks","distance":2413,"country":"United States","city":"Burlingame","latitude":37.5793787742,"longitude":-122.3462526608,"coordinates":{"type":"Point","coordinates":[-122.3462526608,37.5793787742]},"category":"Coffee Shop","score":1.0},{"name":"Starbucks","distance":3677,"country":"United States","city":"Foster City","latitude":37.5587395873,"longitude":-122.2835075855,"coordinates":{"type":"Point","coordinates":[-122.2835075855,37.5587395873]},"category":"Coffee Shop","score":1.0},{"name":"Starbucks","distance":3696,"country":"United States","city":"San Mateo","latitude":37.54459607,"longitude":-122.2928328,"coordinates":{"type":"Point","coordinates":[-122.2928328,37.54459607]},"category":"Coffee Shop","score":1.0},{"name":"Starbucks","distance":4206,"country":"United States","city":"Burlingame","latitude":37.5859056846,"longitude":-122.3650896734,"coordinates":{"type":"Point","coordinates":[-122.3650896734,37.5859056846]},"category":"Coffee Shop","score":1.0},{"name":"Starbucks","distance":4370,"country":"United States","city":"Foster City","latitude":37.556934,"longitude":-122.27598,"coordinates":{"type":"Point","coordinates":[-122.27598,37.556934]},"category":"Coffee Shop","score":1.0},{"name":"Starbucks","distance":4558,"country":"United States","city":"San Mateo","latitude":37.53357308,"longitude":-122.2938505,"coordinates":{"type":"Point","coordinates":[-122.2938505,37.53357308]},"category":"Coffee Shop","score":1.0},{"name":"Starbucks","distance":4462,"country":"United States","city":"Foster City","latitude":37.5608849,"longitude":-122.2738891,"coordinates":{"type":"Point","coordinates":[-122.2738891,37.5608849]},"category":"Coffee Shop","score":1.0},{"name":"Starbucks","distance":3673,"country":"United States","city":"San Mateo","latitude":37.5339371163,"longitude":-122.3263378622,"coordinates":{"type":"Point","coordinates":[-122.3263378622,37.5339371163]},"category":"Coffee Shop","score":1.0},{"name":"Starbucks","distance":5155,"country":"United States","city":"San Mateo","latitude":37.529193,"longitude":-122.289945,"coordinates":{"type":"Point","coordinates":[-122.289945,37.529193]},"category":"Coffee Shop","score":70.0},{"name":"Starbucks","distance":6328,"country":"United States","city":"Burlingame","latitude":37.59516756,"longitude":-122.3861243,"coordinates":{"type":"Point","coordinates":[-122.3861243,37.59516756]},"category":"Coffee Shop","score":30.0},{"name":"Starbucks","distance":6781,"country":"United States","city":"Belmont","latitude":37.51108801,"longitude":-122.2930501,"coordinates":{"type":"Point","coordinates":[-122.2930501,37.51108801]},"category":"Coffee Shop","score":30.0},{"name":"Starbucks","distance":6839,"country":"United States","city":"Belmont","latitude":37.518694,"longitude":-122.27581,"coordinates":{"type":"Point","coordinates":[-122.27581,37.518694]},"category":"Coffee Shop","score":30.0},{"name":"Starbucks","distance":7419,"country":"United States","city":"Millbrae","latitude":37.602957,"longitude":-122.394621,"coordinates":{"type":"Point","coordinates":[-122.394621,37.602957]},"category":"Coffee Shop","score":10.0},{"name":"Starbucks","distance":8048,"country":"United States","city":"Redwood City","latitude":37.52271471,"longitude":-122.2516973,"coordinates":{"type":"Point","coordinates":[-122.2516973,37.52271471]},"category":"Coffee Shop","score":5.0},{"name":"Starbucks","distance":8713,"country":"United States","city":"San Carlos","latitude":37.5065218007,"longitude":-122.2610484029,"coordinates":{"type":"Point","coordinates":[-122.2610484029,37.5065218007]},"category":"Coffee Shop","score":5.0},{"name":"Starbucks","distance":9739,"country":"United States","city":"San Carlos","latitude":37.503345,"longitude":-122.248037,"coordinates":{"type":"Point","coordinates":[-122.248037,37.503345]},"category":"Coffee Shop","score":5.0},{"name":"Starbucks","distance":9241,"country":"United States","city":"San Carlos","latitude":37.50288007,"longitude":-122.2572088,"coordinates":{"type":"Point","coordinates":[-122.2572088,37.50288007]},"category":"Coffee Shop","score":5.0},{"name":"Starbucks","distance":10047,"country":"United States","city":"San Bruno","latitude":37.62469448,"longitude":-122.4113787,"coordinates":{"type":"Point","coordinates":[-122.4113787,37.62469448]},"category":"Coffee Shop","score":1.0},{"name":"Starbucks","distance":11169,"country":"United States","city":"San Bruno","latitude":37.6260583791,"longitude":-122.4261664534,"coordinates":{"type":"Point","coordinates":[-122.4261664534,37.6260583791]},"category":"Coffee Shop","score":1.0},{"name":"Starbucks","distance":11701,"country":"United States","city":"San Bruno","latitude":37.63859399,"longitude":-122.4208945,"coordinates":{"type":"Point","coordinates":[-122.4208945,37.63859399]},"category":"Coffee Shop","score":1.0},{"name":"Starbucks","distance":12464,"country":"United States","city":"South San Francisco","latitude":37.65511627,"longitude":-122.4109091,"coordinates":{"type":"Point","coordinates":[-122.4109091,37.65511627]},"category":"Coffee Shop","score":1.0},{"name":"Starbucks","distance":11365,"country":"United States","city":"San Bruno","latitude":37.63597,"longitude":-122.41878,"coordinates":{"type":"Point","coordinates":[-122.41878,37.63597]},"category":"Coffee Shop","score":1.0},{"name":"San Francisco International Airport (SFO) (San Francisco International Airport)","distance":7864,"country":"United States","city":"San Francisco","latitude":37.6167130001,"longitude":-122.3870944977,"coordinates":{"type":"Point","coordinates":[-122.3870944977,37.6167130001]},"category":"Airport","score":10.0},{"name":"San Carlos Airport (SQL) (San Carlos Airport)","distance":8619,"country":"United States","city":"San Carlos","latitude":37.5151071433,"longitude":-122.2512780923,"coordinates":{"type":"Point","coordinates":[-122.2512780923,37.5151071433]},"category":"Airport","score":5.0},{"name":"North Shoreview Montessori","distance":1094,"country":"United States","city":"San Mateo","latitude":37.5748835977,"longitude":-122.3166825684,"coordinates":{"type":"Point","coordinates":[-122.3166825684,37.5748835977]},"category":"School","score":10.0},{"name":"St. Timothy Catholic School","distance":1372,"country":"United States","city":"San Mateo","latitude":37.5739248347,"longitude":-122.3111308853,"coordinates":{"type":"Point","coordinates":[-122.3111308853,37.5739248347]},"category":"School","score":10.0},{"name":"St. Matthew Catholic School","distance":1010,"country":"United States","city":"San Mateo","latitude":37.5579101647,"longitude":-122.3221364075,"coordinates":{"type":"Point","coordinates":[-122.3221364075,37.5579101647]},"category":"School","score":10.0},{"name":"Petite Sorbonne Preschool","distance":774,"country":"United States","city":"San Mateo","latitude":37.5722549891,"longitude":-122.329469574,"coordinates":{"type":"Point","coordinates":[-122.329469574,37.5722549891]},"category":"School","score":30.0},{"name":"Highland Montessori","distance":1360,"country":"United States","city":"San Mateo","latitude":37.573558,"longitude":-122.336815,"coordinates":{"type":"Point","coordinates":[-122.336815,37.573558]},"category":"School","score":10.0},{"name":"Starbucks","distance":91,"country":"United States","city":"Palo Alto","latitude":37.446737,"longitude":-122.1604894,"coordinates":{"type":"Point","coordinates":[-122.1604894,37.446737]},"category":"Coffee Shop","score":100.0},{"name":"Starbucks","distance":976,"country":"United States","city":"Palo Alto","latitude":37.443713421,"longitude":-122.1718535646,"coordinates":{"type":"Point","coordinates":[-122.1718535646,37.443713421]},"category":"Coffee Shop","score":30.0},{"name":"Starbucks","distance":2064,"country":"United States","city":"Menlo Park","latitude":37.452206,"longitude":-122.18388,"coordinates":{"type":"Point","coordinates":[-122.18388,37.452206]},"category":"Coffee Shop","score":1.0},{"name":"Starbucks","distance":2703,"country":"United States","city":"East Palo Alto","latitude":37.46154538,"longitude":-122.1371958,"coordinates":{"type":"Point","coordinates":[-122.1371958,37.46154538]},"category":"Coffee Shop","score":1.0},{"name":"Starbucks","distance":1758,"country":"United States","city":"Menlo Park","latitude":37.45192561,"longitude":-122.1803583,"coordinates":{"type":"Point","coordinates":[-122.1803583,37.45192561]},"category":"Coffee Shop","score":10.0},{"name":"Starbucks","distance":4125,"country":"United States","city":"Menlo Park","latitude":37.4234946619,"longitude":-122.1977873788,"coordinates":{"type":"Point","coordinates":[-122.1977873788,37.4234946619]},"category":"Coffee Shop","score":1.0},{"name":"Starbucks","distance":2713,"country":"United States","city":"Palo Alto","latitude":37.426797,"longitude":-122.144019,"coordinates":{"type":"Point","coordinates":[-122.144019,37.426797]},"category":"Coffee Shop","score":1.0},{"name":"Starbucks","distance":3951,"country":"United States","city":"Menlo Park","latitude":37.43152889,"longitude":-122.2018663,"coordinates":{"type":"Point","coordinates":[-122.2018663,37.43152889]},"category":"Coffee Shop","score":1.0},{"name":"Starbucks","distance":4149,"country":"United States","city":"Redwood City","latitude":37.478631,"longitude":-122.186017,"coordinates":{"type":"Point","coordinates":[-122.186017,37.478631]},"category":"Coffee Shop","score":1.0},{"name":"Starbucks","distance":4936,"country":"United States","city":"Palo Alto","latitude":37.4131096011,"longitude":-122.1252498437,"coordinates":{"type":"Point","coordinates":[-122.1252498437,37.4131096011]},"category":"Coffee Shop","score":1.0},{"name":"Starbucks","distance":5969,"country":"United States","city":"Redwood City","latitude":37.46635,"longitude":-122.224434,"coordinates":{"type":"Point","coordinates":[-122.224434,37.46635]},"category":"Coffee Shop","score":70.0},{"name":"Starbucks","distance":5865,"country":"United States","city":"Redwood City","latitude":37.474094,"longitude":-122.21832,"coordinates":{"type":"Point","coordinates":[-122.21832,37.474094]},"category":"Coffee Shop","score":70.0},{"name":"Starbucks","distance":6394,"country":"United States","city":"Mountain View","latitude":37.4218141538,"longitude":-122.0964030683,"coordinates":{"type":"Point","coordinates":[-122.0964030683,37.4218141538]},"category":"Coffee Shop","score":30.0},{"name":"Starbucks","distance":6668,"country":"United States","city":"Mountain View","latitude":37.401779,"longitude":-122.111795,"coordinates":{"type":"Point","coordinates":[-122.111795,37.401779]},"category":"Coffee Shop","score":30.0},{"name":"Starbucks","distance":7130,"country":"United States","city":"Mountain View","latitude":37.4114535335,"longitude":-122.0942725106,"coordinates":{"type":"Point","coordinates":[-122.0942725106,37.4114535335]},"category":"Coffee Shop","score":10.0},{"name":"Starbucks","distance":6435,"country":"United States","city":"Redwood City","latitude":37.47721655,"longitude":-122.2234836,"coordinates":{"type":"Point","coordinates":[-122.2234836,37.47721655]},"category":"Coffee Shop","score":30.0},{"name":"Starbucks","distance":8573,"country":"United States","city":"Los Altos","latitude":37.378519,"longitude":-122.116722,"coordinates":{"type":"Point","coordinates":[-122.116722,37.378519]},"category":"Coffee Shop","score":5.0},{"name":"Starbucks","distance":8582,"country":"United States","city":"Mountain View","latitude":37.3908834572,"longitude":-122.0947186922,"coordinates":{"type":"Point","coordinates":[-122.0947186922,37.3908834572]},"category":"Coffee Shop","score":5.0},{"name":"Starbucks","distance":7484,"country":"United States","city":"Redwood City","latitude":37.48515386,"longitude":-122.2311172,"coordinates":{"type":"Point","coordinates":[-122.2311172,37.48515386]},"category":"Coffee Shop","score":10.0},{"name":"Starbucks","distance":7427,"country":"United States","city":"Redwood City","latitude":37.49050432,"longitude":-122.2250751,"coordinates":{"type":"Point","coordinates":[-122.2250751,37.49050432]},"category":"Coffee Shop","score":10.0},{"name":"Starbucks","distance":8184,"country":"United States","city":"Mountain View","latitude":37.415778,"longitude":-122.077594,"coordinates":{"type":"Point","coordinates":[-122.077594,37.415778]},"category":"Coffee Shop","score":5.0},{"name":"Starbucks","distance":9577,"country":"United States","city":"Mountain View","latitude":37.387505,"longitude":-122.08306,"coordinates":{"type":"Point","coordinates":[-122.08306,37.387505]},"category":"Coffee Shop","score":5.0},{"name":"Starbucks","distance":9899,"country":"United States","city":"San Carlos","latitude":37.503345,"longitude":-122.248037,"coordinates":{"type":"Point","coordinates":[-122.248037,37.503345]},"category":"Coffee Shop","score":5.0},{"name":"Starbucks","distance":8472,"country":"United States","city":"Redwood City","latitude":37.49036822,"longitude":-122.2401773,"coordinates":{"type":"Point","coordinates":[-122.2401773,37.49036822]},"category":"Coffee Shop","score":5.0},{"name":"Starbucks","distance":10530,"country":"United States","city":"Mountain View","latitude":37.372286,"longitude":-122.08819,"coordinates":{"type":"Point","coordinates":[-122.08819,37.372286]},"category":"Coffee Shop","score":1.0},{"name":"Starbucks","distance":224,"country":"United States","city":"San Mateo","latitude":37.56289,"longitude":-122.324005,"coordinates":{"type":"Point","coordinates":[-122.324005,37.56289]},"category":"Coffee Shop","score":70.0},{"name":"Starbucks","distance":1709,"country":"United States","city":"San Mateo","latitude":37.55226034,"longitude":-122.3138416,"coordinates":{"type":"Point","coordinates":[-122.3138416,37.55226034]},"category":"Coffee Shop","score":10.0},{"name":"Starbucks","distance":1838,"country":"United States","city":"San Mateo","latitude":37.5798265158,"longitude":-122.3333638737,"coordinates":{"type":"Point","coordinates":[-122.3333638737,37.5798265158]},"category":"Coffee Shop","score":10.0},{"name":"Starbucks","distance":2468,"country":"United States","city":"Burlingame","latitude":37.5793787742,"longitude":-122.3462526608,"coordinates":{"type":"Point","coordinates":[-122.3462526608,37.5793787742]},"category":"Coffee Shop","score":1.0},{"name":"Starbucks","distance":3758,"country":"United States","city":"Foster City","latitude":37.5587395873,"longitude":-122.2835075855,"coordinates":{"type":"Point","coordinates":[-122.2835075855,37.5587395873]},"category":"Coffee Shop","score":1.0},{"name":"Starbucks","distance":3636,"country":"United States","city":"San Mateo","latitude":37.54459607,"longitude":-122.2928328,"coordinates":{"type":"Point","coordinates":[-122.2928328,37.54459607]},"category":"Coffee Shop","score":1.0},{"name":"Starbucks","distance":4228,"country":"United States","city":"Burlingame","latitude":37.5859056846,"longitude":-122.3650896734,"coordinates":{"type":"Point","coordinates":[-122.3650896734,37.5859056846]},"category":"Coffee Shop","score":1.0},{"name":"Starbucks","distance":4448,"country":"United States","city":"Foster City","latitude":37.556934,"longitude":-122.27598,"coordinates":{"type":"Point","coordinates":[-122.27598,37.556934]},"category":"Coffee Shop","score":1.0},{"name":"Starbucks","distance":4435,"country":"United States","city":"San Mateo","latitude":37.53357308,"longitude":-122.2938505,"coordinates":{"type":"Point","coordinates":[-122.2938505,37.53357308]},"category":"Coffee Shop","score":1.0},{"name":"Starbucks","distance":3407,"country":"United States","city":"San Mateo","latitude":37.5339371163,"longitude":-122.3263378622,"coordinates":{"type":"Point","coordinates":[-122.3263378622,37.5339371163]},"category":"Coffee Shop","score":1.0},{"name":"Starbucks","distance":5031,"country":"United States","city":"San Mateo","latitude":37.529193,"longitude":-122.289945,"coordinates":{"type":"Point","coordinates":[-122.289945,37.529193]},"category":"Coffee Shop","score":70.0},{"name":"Starbucks","distance":4569,"country":"United States","city":"Foster City","latitude":37.5608849,"longitude":-122.2738891,"coordinates":{"type":"Point","coordinates":[-122.2738891,37.5608849]},"category":"Coffee Shop","score":1.0},{"name":"Starbucks","distance":6344,"country":"United States","city":"Burlingame","latitude":37.59516756,"longitude":-122.3861243,"coordinates":{"type":"Point","coordinates":[-122.3861243,37.59516756]},"category":"Coffee Shop","score":30.0},{"name":"Starbucks","distance":6602,"country":"United States","city":"Belmont","latitude":37.51108801,"longitude":-122.2930501,"coordinates":{"type":"Point","coordinates":[-122.2930501,37.51108801]},"category":"Coffee Shop","score":30.0},{"name":"Starbucks","distance":6727,"country":"United States","city":"Belmont","latitude":37.518694,"longitude":-122.27581,"coordinates":{"type":"Point","coordinates":[-122.27581,37.518694]},"category":"Coffee Shop","score":30.0},{"name":"Starbucks","distance":7450,"country":"United States","city":"Millbrae","latitude":37.602957,"longitude":-122.394621,"coordinates":{"type":"Point","coordinates":[-122.394621,37.602957]},"category":"Coffee Shop","score":10.0},{"name":"Starbucks","distance":8004,"country":"United States","city":"Redwood City","latitude":37.52271471,"longitude":-122.2516973,"coordinates":{"type":"Point","coordinates":[-122.2516973,37.52271471]},"category":"Coffee Shop","score":5.0},{"name":"Starbucks","distance":8605,"country":"United States","city":"San Carlos","latitude":37.5065218007,"longitude":-122.2610484029,"coordinates":{"type":"Point","coordinates":[-122.2610484029,37.5065218007]},"category":"Coffee Shop","score":5.0},{"name":"Starbucks","distance":9650,"country":"United States","city":"San Carlos","latitude":37.503345,"longitude":-122.248037,"coordinates":{"type":"Point","coordinates":[-122.248037,37.503345]},"category":"Coffee Shop","score":5.0},{"name":"Starbucks","distance":9133,"country":"United States","city":"San Carlos","latitude":37.50288007,"longitude":-122.2572088,"coordinates":{"type":"Point","coordinates":[-122.2572088,37.50288007]},"category":"Coffee Shop","score":5.0},{"name":"Starbucks","distance":10112,"country":"United States","city":"San Bruno","latitude":37.62469448,"longitude":-122.4113787,"coordinates":{"type":"Point","coordinates":[-122.4113787,37.62469448]},"category":"Coffee Shop","score":1.0},{"name":"Starbucks","distance":11215,"country":"United States","city":"San Bruno","latitude":37.6260583791,"longitude":-122.4261664534,"coordinates":{"type":"Point","coordinates":[-122.4261664534,37.6260583791]},"category":"Coffee Shop","score":1.0},{"name":"Starbucks","distance":11780,"country":"United States","city":"San Bruno","latitude":37.63859399,"longitude":-122.4208945,"coordinates":{"type":"Point","coordinates":[-122.4208945,37.63859399]},"category":"Coffee Shop","score":1.0},{"name":"Starbucks","distance":12587,"country":"United States","city":"South San Francisco","latitude":37.65511627,"longitude":-122.4109091,"coordinates":{"type":"Point","coordinates":[-122.4109091,37.65511627]},"category":"Coffee Shop","score":1.0},{"name":"Starbucks","distance":11443,"country":"United States","city":"San Bruno","latitude":37.63597,"longitude":-122.41878,"coordinates":{"type":"Point","coordinates":[-122.41878,37.63597]},"category":"Coffee Shop","score":1.0},{"name":"San Francisco International Airport (SFO) (San Francisco International Airport)","distance":7954,"country":"United States","city":"San Francisco","latitude":37.6167130001,"longitude":-122.3870944977,"coordinates":{"type":"Point","coordinates":[-122.3870944977,37.6167130001]},"category":"Airport","score":10.0},{"name":"San Carlos Airport (SQL) (San Carlos Airport)","distance":8553,"country":"United States","city":"San Carlos","latitude":37.5151071433,"longitude":-122.2512780923,"coordinates":{"type":"Point","coordinates":[-122.2512780923,37.5151071433]},"category":"Airport","score":5.0},{"name":"North Shoreview Montessori","distance":1388,"country":"United States","city":"San Mateo","latitude":37.5748835977,"longitude":-122.3166825684,"coordinates":{"type":"Point","coordinates":[-122.3166825684,37.5748835977]},"category":"School","score":10.0},{"name":"St. Matthew Catholic School","distance":794,"country":"United States","city":"San Mateo","latitude":37.5579101647,"longitude":-122.3221364075,"coordinates":{"type":"Point","coordinates":[-122.3221364075,37.5579101647]},"category":"School","score":30.0},{"name":"Petite Sorbonne Preschool","distance":928,"country":"United States","city":"San Mateo","latitude":37.5722549891,"longitude":-122.329469574,"coordinates":{"type":"Point","coordinates":[-122.329469574,37.5722549891]},"category":"School","score":30.0},{"name":"Highland Montessori","distance":1417,"country":"United States","city":"San Mateo","latitude":37.573558,"longitude":-122.336815,"coordinates":{"type":"Point","coordinates":[-122.336815,37.573558]},"category":"School","score":10.0},{"name":"Starbucks","distance":184,"country":"United States","city":"New York","latitude":40.7595628954,"longitude":-73.9851267684,"coordinates":{"type":"Point","coordinates":[-73.9851267684,40.7595628954]},"category":"Coffee Shop","score":70.0},{"name":"Starbucks","distance":480,"country":"United States","city":"New York","latitude":40.75663838,"longitude":-73.99094694,"coordinates":{"type":"Point","coordinates":[-73.99094694,40.75663838]},"category":"Coffee Shop","score":70.0},{"name":"Starbucks","distance":326,"country":"United States","city":"New York","latitude":40.7605669874,"longitude":-73.9838093298,"coordinates":{"type":"Point","coordinates":[-73.9838093298,40.7605669874]},"category":"Coffee Shop","score":70.0},{"name":"Starbucks","distance":425,"country":"United States","city":"New York","latitude":40.7542922234,"longitude":-73.9870461202,"coordinates":{"type":"Point","coordinates":[-73.9870461202,40.7542922234]},"category":"Coffee Shop","score":70.0},{"name":"Starbucks","distance":491,"country":"United States","city":"New York","latitude":40.7621108134,"longitude":-73.9836305544,"coordinates":{"type":"Point","coordinates":[-73.9836305544,40.7621108134]},"category":"Coffee Shop","score":70.0},{"name":"Starbucks","distance":290,"country":"United States","city":"New York","latitude":40.75799862,"longitude":-73.98894971,"coordinates":{"type":"Point","coordinates":[-73.98894971,40.75799862]},"category":"Coffee Shop","score":70.0},{"name":"Starbucks","distance":314,"country":"United States","city":"New York","latitude":40.760445,"longitude":-73.98719,"coordinates":{"type":"Point","coordinates":[-73.98719,40.760445]},"category":"Coffee Shop","score":70.0},{"name":"Starbucks","distance":343,"country":"United States","city":"New York","latitude":40.7569602921,"longitude":-73.9893780556,"coordinates":{"type":"Point","coordinates":[-73.9893780556,40.7569602921]},"category":"Coffee Shop","score":70.0},{"name":"Starbucks","distance":644,"country":"United States","city":"New York","latitude":40.76372,"longitude":-73.98531,"coordinates":{"type":"Point","coordinates":[-73.98531,40.76372]},"category":"Coffee Shop","score":30.0},{"name":"Starbucks","distance":718,"country":"United States","city":"New York","latitude":40.76399216,"longitude":-73.98258137,"coordinates":{"type":"Point","coordinates":[-73.98258137,40.76399216]},"category":"Coffee Shop","score":30.0},{"name":"Starbucks","distance":149,"country":"United States","city":"New York","latitude":40.7566117775,"longitude":-73.9858496189,"coordinates":{"type":"Point","coordinates":[-73.9858496189,40.7566117775]},"category":"Coffee Shop","score":100.0},{"name":"Starbucks","distance":513,"country":"United States","city":"New York","latitude":40.7581485248,"longitude":-73.9794198195,"coordinates":{"type":"Point","coordinates":[-73.9794198195,40.7581485248]},"category":"Coffee Shop","score":30.0},{"name":"Starbucks","distance":720,"country":"United States","city":"New York","latitude":40.761845,"longitude":-73.9787,"coordinates":{"type":"Point","coordinates":[-73.9787,40.761845]},"category":"Coffee Shop","score":30.0},{"name":"Starbucks","distance":781,"country":"United States","city":"New York","latitude":40.751,"longitude":-73.987015,"coordinates":{"type":"Point","coordinates":[-73.987015,40.751]},"category":"Coffee Shop","score":30.0},{"name":"Starbucks","distance":853,"country":"United States","city":"New York","latitude":40.75052701,"longitude":-73.98815428,"coordinates":{"type":"Point","coordinates":[-73.98815428,40.75052701]},"category":"Coffee Shop","score":30.0},{"name":"Starbucks","distance":48,"country":"United States","city":"New York","latitude":40.7582493443,"longitude":-73.9858871698,"coordinates":{"type":"Point","coordinates":[-73.9858871698,40.7582493443]},"category":"Coffee Shop","score":100.0},{"name":"Starbucks","distance":738,"country":"United States","city":"New York","latitude":40.7520899545,"longitude":-73.981358929,"coordinates":{"type":"Point","coordinates":[-73.981358929,40.7520899545]},"category":"Coffee Shop","score":30.0},{"name":"Starbucks","distance":947,"country":"United States","city":"New York","latitude":40.7566645111,"longitude":-73.9743968925,"coordinates":{"type":"Point","coordinates":[-73.9743968925,40.7566645111]},"category":"Coffee Shop","score":30.0},{"name":"Starbucks","distance":809,"country":"United States","city":"New York","latitude":40.764385,"longitude":-73.98108,"coordinates":{"type":"Point","coordinates":[-73.98108,40.764385]},"category":"Coffee Shop","score":30.0},{"name":"Starbucks","distance":539,"country":"United States","city":"New York","latitude":40.76193824,"longitude":-73.98191645,"coordinates":{"type":"Point","coordinates":[-73.98191645,40.76193824]},"category":"Coffee Shop","score":30.0},{"name":"Starbucks","distance":719,"country":"United States","city":"New York","latitude":40.75315692,"longitude":-73.97975945,"coordinates":{"type":"Point","coordinates":[-73.97975945,40.75315692]},"category":"Coffee Shop","score":30.0},{"name":"Starbucks","distance":582,"country":"United States","city":"New York","latitude":40.75876,"longitude":-73.97869,"coordinates":{"type":"Point","coordinates":[-73.97869,40.75876]},"category":"Coffee Shop","score":30.0},{"name":"Starbucks","distance":624,"country":"United States","city":"New York","latitude":40.75645964,"longitude":-73.97835262,"coordinates":{"type":"Point","coordinates":[-73.97835262,40.75645964]},"category":"Coffee Shop","score":30.0},{"name":"Starbucks","distance":544,"country":"United States","city":"New York","latitude":40.757996,"longitude":-73.99196,"coordinates":{"type":"Point","coordinates":[-73.99196,40.757996]},"category":"Coffee Shop","score":30.0},{"name":"Starbucks","distance":252,"country":"United States","city":"New York","latitude":40.75779604,"longitude":-73.98251187,"coordinates":{"type":"Point","coordinates":[-73.98251187,40.75779604]},"category":"Coffee Shop","score":70.0},{"name":"LaGuardia Airport (LGA) (LaGuardia Airport)","distance":9978,"country":"United States","city":"East Elmhurst","latitude":40.77288813,"longitude":-73.8688087463,"coordinates":{"type":"Point","coordinates":[-73.8688087463,40.77288813]},"category":"Airport","score":5.0},{"name":"Ritz Bar & Lounge","distance":519,"country":"United States","city":"New York","latitude":40.7608440935,"longitude":-73.9903223305,"coordinates":{"type":"Point","coordinates":[-73.9903223305,40.7608440935]},"category":"Bar","score":30.0},{"name":"Maoz","distance":305,"country":"United States","city":"New York","latitude":40.7581871474,"longitude":-73.989116997,"coordinates":{"type":"Point","coordinates":[-73.989116997,40.7581871474]},"category":"Vegan","score":70.0},{"name":"Vegetarian Oasis","distance":388,"country":"United States","city":"New York","latitude":40.754572167,"longitude":-73.9842511947,"coordinates":{"type":"Point","coordinates":[-73.9842511947,40.754572167]},"category":"Vegan","score":70.0},{"name":"Starbucks","distance":3930,"country":"United States","city":"Saint Petersburg","latitude":27.8942253175,"longitude":-82.6686236776,"coordinates":{"type":"Point","coordinates":[-82.6686236776,27.8942253175]},"category":"Coffee Shop","score":1.0},{"name":"Starbucks","distance":4290,"country":"United States","city":"Largo","latitude":27.9163471674,"longitude":-82.7459056537,"coordinates":{"type":"Point","coordinates":[-82.7459056537,27.9163471674]},"category":"Coffee Shop","score":1.0},{"name":"Starbucks","distance":5497,"country":"United States","city":"Clearwater","latitude":27.958391,"longitude":-82.72451,"coordinates":{"type":"Point","coordinates":[-82.72451,27.958391]},"category":"Coffee Shop","score":70.0},{"name":"Starbucks","distance":5851,"country":"United States","city":"Largo","latitude":27.916117,"longitude":-82.76183,"coordinates":{"type":"Point","coordinates":[-82.76183,27.916117]},"category":"Coffee Shop","score":70.0},{"name":"Starbucks","distance":8749,"country":"United States","city":"Safety Harbor","latitude":27.990709216,"longitude":-82.6890228992,"coordinates":{"type":"Point","coordinates":[-82.6890228992,27.990709216]},"category":"Coffee Shop","score":5.0},{"name":"Starbucks","distance":8670,"country":"United States","city":"Pinellas Park","latitude":27.8367232661,"longitude":-82.6846933365,"coordinates":{"type":"Point","coordinates":[-82.6846933365,27.8367232661]},"category":"Coffee Shop","score":5.0},{"name":"Starbucks","distance":9200,"country":"United States","city":"Saint Petersburg","latitude":27.8528332561,"longitude":-82.6383609751,"coordinates":{"type":"Point","coordinates":[-82.6383609751,27.8528332561]},"category":"Coffee Shop","score":5.0},{"name":"Starbucks","distance":8465,"country":"United States","city":"Largo","latitude":27.894024,"longitude":-82.785777,"coordinates":{"type":"Point","coordinates":[-82.785777,27.894024]},"category":"Coffee Shop","score":5.0},{"name":"Starbucks","distance":11284,"country":"United States","city":"Clearwater","latitude":28.014196,"longitude":-82.70946,"coordinates":{"type":"Point","coordinates":[-82.70946,28.014196]},"category":"Coffee Shop","score":1.0},{"name":"Starbucks","distance":11244,"country":"United States","city":"Clearwater","latitude":27.96550859,"longitude":-82.80013414,"coordinates":{"type":"Point","coordinates":[-82.80013414,27.96550859]},"category":"Coffee Shop","score":1.0},{"name":"Starbucks","distance":11216,"country":"United States","city":"Belleair Bluffs","latitude":27.9168566112,"longitude":-82.8163989204,"coordinates":{"type":"Point","coordinates":[-82.8163989204,27.9168566112]},"category":"Coffee Shop","score":1.0},{"name":"Starbucks","distance":12034,"country":"United States","city":"Clearwater","latitude":28.01766194,"longitude":-82.73315166,"coordinates":{"type":"Point","coordinates":[-82.73315166,28.01766194]},"category":"Coffee Shop","score":1.0},{"name":"Starbucks","distance":11703,"country":"United States","city":"Clearwater","latitude":28.014397,"longitude":-82.73394,"coordinates":{"type":"Point","coordinates":[-82.73394,28.014397]},"category":"Coffee Shop","score":1.0},{"name":"Starbucks","distance":12336,"country":"United States","city":"Saint Petersburg","latitude":27.8174571186,"longitude":-82.6389534352,"coordinates":{"type":"Point","coordinates":[-82.6389534352,27.8174571186]},"category":"Coffee Shop","score":1.0},{"name":"Starbucks","distance":12844,"country":"United States","city":"Largo","latitude":27.8798050525,"longitude":-82.8274768012,"coordinates":{"type":"Point","coordinates":[-82.8274768012,27.8798050525]},"category":"Coffee Shop","score":1.0},{"name":"Starbucks","distance":13642,"country":"United States","city":"Saint Petersburg","latitude":27.79348651,"longitude":-82.73306254,"coordinates":{"type":"Point","coordinates":[-82.73306254,27.79348651]},"category":"Coffee Shop","score":1.0},{"name":"Starbucks","distance":15128,"country":"United States","city":"Tampa","latitude":27.9963972735,"longitude":-82.5809632779,"coordinates":{"type":"Point","coordinates":[-82.5809632779,27.9963972735]},"category":"Coffee Shop","score":1.0},{"name":"Starbucks","distance":15221,"country":"United States","city":"Oldsmar","latitude":28.0496209781,"longitude":-82.6958144193,"coordinates":{"type":"Point","coordinates":[-82.6958144193,28.0496209781]},"category":"Coffee Shop","score":1.0},{"name":"Starbucks","distance":14820,"country":"United States","city":"Saint Petersburg","latitude":27.7920785389,"longitude":-82.6394790536,"coordinates":{"type":"Point","coordinates":[-82.6394790536,27.7920785389]},"category":"Coffee Shop","score":1.0},{"name":"Starbucks","distance":15630,"country":"United States","city":"Palm Harbor","latitude":28.049945,"longitude":-82.737619,"coordinates":{"type":"Point","coordinates":[-82.737619,28.049945]},"category":"Coffee Shop","score":1.0},{"name":"Starbucks","distance":15947,"country":"United States","city":"Saint Petersburg","latitude":27.781332875,"longitude":-82.6386409687,"coordinates":{"type":"Point","coordinates":[-82.6386409687,27.781332875]},"category":"Coffee Shop","score":1.0},{"name":"Starbucks","distance":15990,"country":"United States","city":"Saint Petersburg","latitude":27.7711721172,"longitude":-82.7281630241,"coordinates":{"type":"Point","coordinates":[-82.7281630241,27.7711721172]},"category":"Coffee Shop","score":1.0},{"name":"Starbucks","distance":17003,"country":"United States","city":"Saint Petersburg","latitude":27.77225382,"longitude":-82.6353631,"coordinates":{"type":"Point","coordinates":[-82.6353631,27.77225382]},"category":"Coffee Shop","score":1.0},{"name":"Starbucks","distance":18158,"country":"United States","city":"Tampa","latitude":27.9565676751,"longitude":-82.5245143941,"coordinates":{"type":"Point","coordinates":[-82.5245143941,27.9565676751]},"category":"Coffee Shop","score":1.0},{"name":"Starbucks","distance":18684,"country":"United States","city":"Tampa","latitude":28.0693410193,"longitude":-82.6332594194,"coordinates":{"type":"Point","coordinates":[-82.6332594194,28.0693410193]},"category":"Coffee Shop","score":1.0},{"name":"St. Petersburg - Clearwater International Airport (PIE)","distance":1300,"country":"United States","city":"Clearwater","latitude":27.9066422502,"longitude":-82.6913610675,"coordinates":{"type":"Point","coordinates":[-82.6913610675,27.9066422502]},"category":"Airport","score":10.0},{"name":"High Point Elementary School","distance":1211,"country":"United States","city":"Largo","latitude":27.9090762803,"longitude":-82.7139303933,"coordinates":{"type":"Point","coordinates":[-82.7139303933,27.9090762803]},"category":"School","score":10.0},{"name":"Stockholm-Bromma Airport (BMA) (Stockholm-Bromma Airport)","distance":5532,"country":"Sverige","city":"Bromma","latitude":59.3555317662,"longitude":17.9454820536,"coordinates":{"type":"Point","coordinates":[17.9454820536,59.3555317662]},"category":"Airport","score":70.0},{"name":"Bar","distance":5529,"country":"Sverige","city":"Bromma","latitude":59.3554772081,"longitude":17.9454875943,"coordinates":{"type":"Point","coordinates":[17.9454875943,59.3554772081]},"category":"Bar","score":70.0},{"name":"Stockholm-Bromma Airport (BMA) (Stockholm-Bromma Airport)","distance":5532,"country":"Sverige","city":"Bromma","latitude":59.3555317662,"longitude":17.9454820536,"coordinates":{"type":"Point","coordinates":[17.9454820536,59.3555317662]},"category":"Airport","score":70.0},{"name":"Bar","distance":5529,"country":"Sverige","city":"Bromma","latitude":59.3554772081,"longitude":17.9454875943,"coordinates":{"type":"Point","coordinates":[17.9454875943,59.3554772081]},"category":"Bar","score":70.0},{"name":"Starbucks","distance":3930,"country":"United States","city":"Saint Petersburg","latitude":27.8942253175,"longitude":-82.6686236776,"coordinates":{"type":"Point","coordinates":[-82.6686236776,27.8942253175]},"category":"Coffee Shop","score":1.0},{"name":"Starbucks","distance":4290,"country":"United States","city":"Largo","latitude":27.9163471674,"longitude":-82.7459056537,"coordinates":{"type":"Point","coordinates":[-82.7459056537,27.9163471674]},"category":"Coffee Shop","score":1.0},{"name":"Starbucks","distance":5497,"country":"United States","city":"Clearwater","latitude":27.958391,"longitude":-82.72451,"coordinates":{"type":"Point","coordinates":[-82.72451,27.958391]},"category":"Coffee Shop","score":70.0},{"name":"Starbucks","distance":5851,"country":"United States","city":"Largo","latitude":27.916117,"longitude":-82.76183,"coordinates":{"type":"Point","coordinates":[-82.76183,27.916117]},"category":"Coffee Shop","score":70.0},{"name":"Starbucks","distance":8749,"country":"United States","city":"Safety Harbor","latitude":27.990709216,"longitude":-82.6890228992,"coordinates":{"type":"Point","coordinates":[-82.6890228992,27.990709216]},"category":"Coffee Shop","score":5.0},{"name":"Starbucks","distance":8670,"country":"United States","city":"Pinellas Park","latitude":27.8367232661,"longitude":-82.6846933365,"coordinates":{"type":"Point","coordinates":[-82.6846933365,27.8367232661]},"category":"Coffee Shop","score":5.0},{"name":"Starbucks","distance":9200,"country":"United States","city":"Saint Petersburg","latitude":27.8528332561,"longitude":-82.6383609751,"coordinates":{"type":"Point","coordinates":[-82.6383609751,27.8528332561]},"category":"Coffee Shop","score":5.0},{"name":"Starbucks","distance":8465,"country":"United States","city":"Largo","latitude":27.894024,"longitude":-82.785777,"coordinates":{"type":"Point","coordinates":[-82.785777,27.894024]},"category":"Coffee Shop","score":5.0},{"name":"Starbucks","distance":11284,"country":"United States","city":"Clearwater","latitude":28.014196,"longitude":-82.70946,"coordinates":{"type":"Point","coordinates":[-82.70946,28.014196]},"category":"Coffee Shop","score":1.0},{"name":"Starbucks","distance":11244,"country":"United States","city":"Clearwater","latitude":27.96550859,"longitude":-82.80013414,"coordinates":{"type":"Point","coordinates":[-82.80013414,27.96550859]},"category":"Coffee Shop","score":1.0},{"name":"Starbucks","distance":11216,"country":"United States","city":"Belleair Bluffs","latitude":27.9168566112,"longitude":-82.8163989204,"coordinates":{"type":"Point","coordinates":[-82.8163989204,27.9168566112]},"category":"Coffee Shop","score":1.0},{"name":"Starbucks","distance":12034,"country":"United States","city":"Clearwater","latitude":28.01766194,"longitude":-82.73315166,"coordinates":{"type":"Point","coordinates":[-82.73315166,28.01766194]},"category":"Coffee Shop","score":1.0},{"name":"Starbucks","distance":11703,"country":"United States","city":"Clearwater","latitude":28.014397,"longitude":-82.73394,"coordinates":{"type":"Point","coordinates":[-82.73394,28.014397]},"category":"Coffee Shop","score":1.0},{"name":"Starbucks","distance":12336,"country":"United States","city":"Saint Petersburg","latitude":27.8174571186,"longitude":-82.6389534352,"coordinates":{"type":"Point","coordinates":[-82.6389534352,27.8174571186]},"category":"Coffee Shop","score":1.0},{"name":"Starbucks","distance":12844,"country":"United States","city":"Largo","latitude":27.8798050525,"longitude":-82.8274768012,"coordinates":{"type":"Point","coordinates":[-82.8274768012,27.8798050525]},"category":"Coffee Shop","score":1.0},{"name":"Starbucks","distance":13642,"country":"United States","city":"Saint Petersburg","latitude":27.79348651,"longitude":-82.73306254,"coordinates":{"type":"Point","coordinates":[-82.73306254,27.79348651]},"category":"Coffee Shop","score":1.0},{"name":"Starbucks","distance":15128,"country":"United States","city":"Tampa","latitude":27.9963972735,"longitude":-82.5809632779,"coordinates":{"type":"Point","coordinates":[-82.5809632779,27.9963972735]},"category":"Coffee Shop","score":1.0},{"name":"Starbucks","distance":15221,"country":"United States","city":"Oldsmar","latitude":28.0496209781,"longitude":-82.6958144193,"coordinates":{"type":"Point","coordinates":[-82.6958144193,28.0496209781]},"category":"Coffee Shop","score":1.0},{"name":"Starbucks","distance":14820,"country":"United States","city":"Saint Petersburg","latitude":27.7920785389,"longitude":-82.6394790536,"coordinates":{"type":"Point","coordinates":[-82.6394790536,27.7920785389]},"category":"Coffee Shop","score":1.0},{"name":"Starbucks","distance":15630,"country":"United States","city":"Palm Harbor","latitude":28.049945,"longitude":-82.737619,"coordinates":{"type":"Point","coordinates":[-82.737619,28.049945]},"category":"Coffee Shop","score":1.0},{"name":"Starbucks","distance":15947,"country":"United States","city":"Saint Petersburg","latitude":27.781332875,"longitude":-82.6386409687,"coordinates":{"type":"Point","coordinates":[-82.6386409687,27.781332875]},"category":"Coffee Shop","score":1.0},{"name":"Starbucks","distance":15990,"country":"United States","city":"Saint Petersburg","latitude":27.7711721172,"longitude":-82.7281630241,"coordinates":{"type":"Point","coordinates":[-82.7281630241,27.7711721172]},"category":"Coffee Shop","score":1.0},{"name":"Starbucks","distance":17003,"country":"United States","city":"Saint Petersburg","latitude":27.77225382,"longitude":-82.6353631,"coordinates":{"type":"Point","coordinates":[-82.6353631,27.77225382]},"category":"Coffee Shop","score":1.0},{"name":"Starbucks","distance":18158,"country":"United States","city":"Tampa","latitude":27.9565676751,"longitude":-82.5245143941,"coordinates":{"type":"Point","coordinates":[-82.5245143941,27.9565676751]},"category":"Coffee Shop","score":1.0},{"name":"Starbucks","distance":18684,"country":"United States","city":"Tampa","latitude":28.0693410193,"longitude":-82.6332594194,"coordinates":{"type":"Point","coordinates":[-82.6332594194,28.0693410193]},"category":"Coffee Shop","score":1.0},{"name":"St. Petersburg - Clearwater International Airport (PIE)","distance":1300,"country":"United States","city":"Clearwater","latitude":27.9066422502,"longitude":-82.6913610675,"coordinates":{"type":"Point","coordinates":[-82.6913610675,27.9066422502]},"category":"Airport","score":10.0},{"name":"High Point Elementary School","distance":1211,"country":"United States","city":"Largo","latitude":27.9090762803,"longitude":-82.7139303933,"coordinates":{"type":"Point","coordinates":[-82.7139303933,27.9090762803]},"category":"School","score":10.0},{"name":"Starbucks","distance":734,"country":"United States","city":"San Francisco","latitude":37.7787041301,"longitude":-122.3967274809,"coordinates":{"type":"Point","coordinates":[-122.3967274809,37.7787041301]},"category":"Coffee Shop","score":30.0},{"name":"Starbucks","distance":664,"country":"United States","city":"San Francisco","latitude":37.7900699653,"longitude":-122.4020826091,"coordinates":{"type":"Point","coordinates":[-122.4020826091,37.7900699653]},"category":"Coffee Shop","score":30.0},{"name":"Starbucks","distance":576,"country":"United States","city":"San Francisco","latitude":37.7846048234,"longitude":-122.4040778421,"coordinates":{"type":"Point","coordinates":[-122.4040778421,37.7846048234]},"category":"Coffee Shop","score":30.0},{"name":"Starbucks","distance":478,"country":"United States","city":"San Francisco","latitude":37.7887916506,"longitude":-122.4007102485,"coordinates":{"type":"Point","coordinates":[-122.4007102485,37.7887916506]},"category":"Coffee Shop","score":70.0},{"name":"Starbucks","distance":713,"country":"United States","city":"San Francisco","latitude":37.7911044959,"longitude":-122.4009510945,"coordinates":{"type":"Point","coordinates":[-122.4009510945,37.7911044959]},"category":"Coffee Shop","score":30.0},{"name":"Starbucks","distance":466,"country":"United States","city":"San Francisco","latitude":37.78946201,"longitude":-122.3975822,"coordinates":{"type":"Point","coordinates":[-122.3975822,37.78946201]},"category":"Coffee Shop","score":70.0},{"name":"Starbucks","distance":572,"country":"United States","city":"San Francisco","latitude":37.7898189828,"longitude":-122.3945345509,"coordinates":{"type":"Point","coordinates":[-122.3945345509,37.7898189828]},"category":"Coffee Shop","score":30.0},{"name":"Starbucks","distance":544,"country":"United States","city":"San Francisco","latitude":37.78736,"longitude":-122.40318,"coordinates":{"type":"Point","coordinates":[-122.40318,37.78736]},"category":"Coffee Shop","score":30.0},{"name":"Starbucks","distance":720,"country":"United States","city":"San Francisco","latitude":37.78615912,"longitude":-122.4056946,"coordinates":{"type":"Point","coordinates":[-122.4056946,37.78615912]},"category":"Coffee Shop","score":30.0},{"name":"Starbucks","distance":931,"country":"United States","city":"San Francisco","latitude":37.78936,"longitude":-122.40682,"coordinates":{"type":"Point","coordinates":[-122.40682,37.78936]},"category":"Coffee Shop","score":30.0},{"name":"Starbucks","distance":742,"country":"United States","city":"San Francisco","latitude":37.791912,"longitude":-122.398364,"coordinates":{"type":"Point","coordinates":[-122.398364,37.791912]},"category":"Coffee Shop","score":30.0},{"name":"Starbucks","distance":620,"country":"United States","city":"San Francisco","latitude":37.789594,"longitude":-122.402032,"coordinates":{"type":"Point","coordinates":[-122.402032,37.789594]},"category":"Coffee Shop","score":30.0},{"name":"Starbucks","distance":982,"country":"United States","city":"San Francisco","latitude":37.79367175,"longitude":-122.3941521,"coordinates":{"type":"Point","coordinates":[-122.3941521,37.79367175]},"category":"Coffee Shop","score":30.0},{"name":"Starbucks","distance":815,"country":"United States","city":"San Francisco","latitude":37.79132,"longitude":-122.39235,"coordinates":{"type":"Point","coordinates":[-122.39235,37.79132]},"category":"Coffee Shop","score":30.0},{"name":"Starbucks","distance":921,"country":"United States","city":"San Francisco","latitude":37.79042546,"longitude":-122.4057733,"coordinates":{"type":"Point","coordinates":[-122.4057733,37.79042546]},"category":"Coffee Shop","score":30.0},{"name":"Starbucks","distance":428,"country":"United States","city":"San Francisco","latitude":37.7879020935,"longitude":-122.4011438698,"coordinates":{"type":"Point","coordinates":[-122.4011438698,37.7879020935]},"category":"Coffee Shop","score":70.0},{"name":"Starbucks","distance":838,"country":"United States","city":"San Francisco","latitude":37.7908174192,"longitude":-122.4040255818,"coordinates":{"type":"Point","coordinates":[-122.4040255818,37.7908174192]},"category":"Coffee Shop","score":30.0},{"name":"Starbucks","distance":887,"country":"United States","city":"San Francisco","latitude":37.79306,"longitude":-122.39976,"coordinates":{"type":"Point","coordinates":[-122.39976,37.79306]},"category":"Coffee Shop","score":30.0},{"name":"Starbucks","distance":931,"country":"United States","city":"San Francisco","latitude":37.79219,"longitude":-122.40354,"coordinates":{"type":"Point","coordinates":[-122.40354,37.79219]},"category":"Coffee Shop","score":30.0},{"name":"Starbucks","distance":914,"country":"United States","city":"San Francisco","latitude":37.7934867757,"longitude":-122.39738393,"coordinates":{"type":"Point","coordinates":[-122.39738393,37.7934867757]},"category":"Coffee Shop","score":30.0},{"name":"Starbucks","distance":217,"country":"United States","city":"San Francisco","latitude":37.7847936773,"longitude":-122.399973915,"coordinates":{"type":"Point","coordinates":[-122.399973915,37.7847936773]},"category":"Coffee Shop","score":70.0},{"name":"Starbucks","distance":793,"country":"United States","city":"San Francisco","latitude":37.791973,"longitude":-122.394516,"coordinates":{"type":"Point","coordinates":[-122.394516,37.791973]},"category":"Coffee Shop","score":30.0},{"name":"Starbucks","distance":977,"country":"United States","city":"San Francisco","latitude":37.77705718,"longitude":-122.393659,"coordinates":{"type":"Point","coordinates":[-122.393659,37.77705718]},"category":"Coffee Shop","score":30.0},{"name":"Starbucks","distance":944,"country":"United States","city":"San Francisco","latitude":37.793755,"longitude":-122.39721,"coordinates":{"type":"Point","coordinates":[-122.39721,37.793755]},"category":"Coffee Shop","score":30.0},{"name":"Starbucks","distance":575,"country":"United States","city":"San Francisco","latitude":37.7842313689,"longitude":-122.4039853612,"coordinates":{"type":"Point","coordinates":[-122.4039853612,37.7842313689]},"category":"Coffee Shop","score":30.0},{"name":"Temple Nightclub","distance":294,"country":"United States","city":"San Francisco","latitude":37.7878983547,"longitude":-122.3972270176,"coordinates":{"type":"Point","coordinates":[-122.3972270176,37.7878983547]},"category":"Bar","score":70.0},{"name":"Starbucks","distance":349,"country":"United Kingdom","city":"Greater London","latitude":51.516572,"longitude":-0.103302,"coordinates":{"type":"Point","coordinates":[-0.103302,51.516572]},"category":"Coffee Shop","score":70.0},{"name":"Starbucks","distance":125,"country":"United Kingdom","city":"London","latitude":51.520227,"longitude":-0.103538,"coordinates":{"type":"Point","coordinates":[-0.103538,51.520227]},"category":"Coffee Shop","score":100.0},{"name":"Starbucks","distance":601,"country":"United Kingdom","city":"London","latitude":51.514608,"longitude":-0.098737,"coordinates":{"type":"Point","coordinates":[-0.098737,51.514608]},"category":"Coffee Shop","score":30.0},{"name":"Starbucks","distance":793,"country":"United Kingdom","city":"London","latitude":51.512599,"longitude":-0.104046,"coordinates":{"type":"Point","coordinates":[-0.104046,51.512599]},"category":"Coffee Shop","score":30.0},{"name":"Starbucks","distance":534,"country":"United States","city":"New York","latitude":40.74900081,"longitude":-73.99035964,"coordinates":{"type":"Point","coordinates":[-73.99035964,40.74900081]},"category":"Coffee Shop","score":30.0},{"name":"Starbucks","distance":658,"country":"United States","city":"New York","latitude":40.75052701,"longitude":-73.98815428,"coordinates":{"type":"Point","coordinates":[-73.98815428,40.75052701]},"category":"Coffee Shop","score":30.0},{"name":"Starbucks","distance":602,"country":"United States","city":"New York","latitude":40.749138,"longitude":-73.983826,"coordinates":{"type":"Point","coordinates":[-73.983826,40.749138]},"category":"Coffee Shop","score":30.0},{"name":"Starbucks","distance":91,"country":"United States","city":"New York","latitude":40.745068,"longitude":-73.98686,"coordinates":{"type":"Point","coordinates":[-73.98686,40.745068]},"category":"Coffee Shop","score":100.0},{"name":"Starbucks","distance":440,"country":"United States","city":"New York","latitude":40.748234,"longitude":-73.98563,"coordinates":{"type":"Point","coordinates":[-73.98563,40.748234]},"category":"Coffee Shop","score":70.0},{"name":"Starbucks","distance":460,"country":"United States","city":"New York","latitude":40.7454707144,"longitude":-73.9824185607,"coordinates":{"type":"Point","coordinates":[-73.9824185607,40.7454707144]},"category":"Coffee Shop","score":70.0},{"name":"Starbucks","distance":713,"country":"United States","city":"New York","latitude":40.751,"longitude":-73.987015,"coordinates":{"type":"Point","coordinates":[-73.987015,40.751]},"category":"Coffee Shop","score":30.0},{"name":"Starbucks","distance":551,"country":"United States","city":"New York","latitude":40.740383,"longitude":-73.991165,"coordinates":{"type":"Point","coordinates":[-73.991165,40.740383]},"category":"Coffee Shop","score":30.0},{"name":"Starbucks","distance":537,"country":"United States","city":"New York","latitude":40.746975,"longitude":-73.993324,"coordinates":{"type":"Point","coordinates":[-73.993324,40.746975]},"category":"Coffee Shop","score":30.0},{"name":"Starbucks","distance":345,"country":"United States","city":"New York","latitude":40.74405161,"longitude":-73.98373659,"coordinates":{"type":"Point","coordinates":[-73.98373659,40.74405161]},"category":"Coffee Shop","score":70.0},{"name":"Starbucks","distance":609,"country":"United States","city":"New York","latitude":40.746723,"longitude":-73.981094,"coordinates":{"type":"Point","coordinates":[-73.981094,40.746723]},"category":"Coffee Shop","score":30.0},{"name":"Starbucks","distance":779,"country":"United States","city":"New York","latitude":40.75119363,"longitude":-73.99093502,"coordinates":{"type":"Point","coordinates":[-73.99093502,40.75119363]},"category":"Coffee Shop","score":30.0},{"name":"Starbucks","distance":991,"country":"United States","city":"New York","latitude":40.7520899545,"longitude":-73.981358929,"coordinates":{"type":"Point","coordinates":[-73.981358929,40.7520899545]},"category":"Coffee Shop","score":30.0},{"name":"Starbucks","distance":668,"country":"United States","city":"New York","latitude":40.74179,"longitude":-73.980774,"coordinates":{"type":"Point","coordinates":[-73.980774,40.74179]},"category":"Coffee Shop","score":30.0},{"name":"Starbucks","distance":972,"country":"United States","city":"New York","latitude":40.73628194,"longitude":-73.99120667,"coordinates":{"type":"Point","coordinates":[-73.99120667,40.73628194]},"category":"Coffee Shop","score":30.0},{"name":"Starbucks","distance":749,"country":"United States","city":"New York","latitude":40.73790176,"longitude":-73.98835362,"coordinates":{"type":"Point","coordinates":[-73.98835362,40.73790176]},"category":"Coffee Shop","score":30.0},{"name":"Starbucks","distance":617,"country":"United States","city":"New York","latitude":40.7489585,"longitude":-73.99231501,"coordinates":{"type":"Point","coordinates":[-73.99231501,40.7489585]},"category":"Coffee Shop","score":30.0},{"name":"Starbucks","distance":393,"country":"United States","city":"New York","latitude":40.74166,"longitude":-73.99031,"coordinates":{"type":"Point","coordinates":[-73.99031,40.74166]},"category":"Coffee Shop","score":70.0},{"name":"Starbucks","distance":533,"country":"United States","city":"New York","latitude":40.74927198,"longitude":-73.98927764,"coordinates":{"type":"Point","coordinates":[-73.98927764,40.74927198]},"category":"Coffee Shop","score":30.0},{"name":"Starbucks","distance":650,"country":"United States","city":"New York","latitude":40.744307413,"longitude":-73.995462178,"coordinates":{"type":"Point","coordinates":[-73.995462178,40.744307413]},"category":"Coffee Shop","score":30.0},{"name":"Starbucks","distance":669,"country":"United States","city":"New York","latitude":40.748974,"longitude":-73.98229,"coordinates":{"type":"Point","coordinates":[-73.98229,40.748974]},"category":"Coffee Shop","score":30.0},{"name":"Starbucks","distance":128,"country":"United States","city":"New York","latitude":40.74383,"longitude":-73.988884,"coordinates":{"type":"Point","coordinates":[-73.988884,40.74383]},"category":"Coffee Shop","score":100.0},{"name":"Starbucks","distance":854,"country":"United States","city":"New York","latitude":40.7509714126,"longitude":-73.9934509993,"coordinates":{"type":"Point","coordinates":[-73.9934509993,40.7509714126]},"category":"Coffee Shop","score":30.0},{"name":"Starbucks","distance":500,"country":"United States","city":"New York","latitude":40.74016,"longitude":-73.98697,"coordinates":{"type":"Point","coordinates":[-73.98697,40.74016]},"category":"Coffee Shop","score":70.0},{"name":"Starbucks","distance":378,"country":"United States","city":"New York","latitude":40.743572,"longitude":-73.99203,"coordinates":{"type":"Point","coordinates":[-73.99203,40.743572]},"category":"Coffee Shop","score":70.0},{"name":"Starbucks","distance":391,"country":"United Kingdom","city":"London","latitude":51.512707,"longitude":-0.088153,"coordinates":{"type":"Point","coordinates":[-0.088153,51.512707]},"category":"Coffee Shop","score":70.0},{"name":"Starbucks","distance":924,"country":"United Kingdom","city":"London","latitude":51.5047960762,"longitude":-0.0868732798,"coordinates":{"type":"Point","coordinates":[-0.0868732798,51.5047960762]},"category":"Coffee Shop","score":30.0},{"name":"Starbucks","distance":259,"country":"United Kingdom","city":"London","latitude":51.512619,"longitude":-0.090088,"coordinates":{"type":"Point","coordinates":[-0.090088,51.512619]},"category":"Coffee Shop","score":70.0},{"name":"Starbucks","distance":746,"country":"United Kingdom","city":"London","latitude":51.506522,"longitude":-0.100019,"coordinates":{"type":"Point","coordinates":[-0.100019,51.506522]},"category":"Coffee Shop","score":30.0},{"name":"Starbucks","distance":459,"country":"United Kingdom","city":"London","latitude":51.514608,"longitude":-0.098737,"coordinates":{"type":"Point","coordinates":[-0.098737,51.514608]},"category":"Coffee Shop","score":70.0},{"name":"Starbucks","distance":475,"country":"United Kingdom","city":"South Bank","latitude":51.507986,"longitude":-0.096244,"coordinates":{"type":"Point","coordinates":[-0.096244,51.507986]},"category":"Coffee Shop","score":70.0},{"name":"Starbucks","distance":707,"country":"United Kingdom","city":"London","latitude":51.508201,"longitude":-0.101929,"coordinates":{"type":"Point","coordinates":[-0.101929,51.508201]},"category":"Coffee Shop","score":30.0},{"name":"Starbucks","distance":722,"country":"United Kingdom","city":"London","latitude":51.512599,"longitude":-0.104046,"coordinates":{"type":"Point","coordinates":[-0.104046,51.512599]},"category":"Coffee Shop","score":30.0},{"name":"Starbucks","distance":843,"country":"United Kingdom","city":"Greater London","latitude":51.516572,"longitude":-0.103302,"coordinates":{"type":"Point","coordinates":[-0.103302,51.516572]},"category":"Coffee Shop","score":30.0},{"name":"London City Airport (LCY) (London City Airport)","distance":9971,"country":"United Kingdom","city":"London","latitude":51.5039795408,"longitude":0.049678687,"coordinates":{"type":"Point","coordinates":[0.049678687,51.5039795408]},"category":"Airport","score":5.0},{"name":"Starbucks","distance":17,"country":"United States","city":"New York","latitude":40.7454707144,"longitude":-73.9824185607,"coordinates":{"type":"Point","coordinates":[-73.9824185607,40.7454707144]},"category":"Coffee Shop","score":100.0},{"name":"Starbucks","distance":794,"country":"United States","city":"New York","latitude":40.74900081,"longitude":-73.99035964,"coordinates":{"type":"Point","coordinates":[-73.99035964,40.74900081]},"category":"Coffee Shop","score":30.0},{"name":"Starbucks","distance":436,"country":"United States","city":"New York","latitude":40.749138,"longitude":-73.983826,"coordinates":{"type":"Point","coordinates":[-73.983826,40.749138]},"category":"Coffee Shop","score":70.0},{"name":"Starbucks","distance":174,"country":"United States","city":"New York","latitude":40.746723,"longitude":-73.981094,"coordinates":{"type":"Point","coordinates":[-73.981094,40.746723]},"category":"Coffee Shop","score":70.0},{"name":"Starbucks","distance":426,"country":"United States","city":"New York","latitude":40.748234,"longitude":-73.98563,"coordinates":{"type":"Point","coordinates":[-73.98563,40.748234]},"category":"Coffee Shop","score":70.0},{"name":"Starbucks","distance":758,"country":"United States","city":"New York","latitude":40.75052701,"longitude":-73.98815428,"coordinates":{"type":"Point","coordinates":[-73.98815428,40.75052701]},"category":"Coffee Shop","score":30.0},{"name":"Starbucks","distance":742,"country":"United States","city":"New York","latitude":40.751,"longitude":-73.987015,"coordinates":{"type":"Point","coordinates":[-73.987015,40.751]},"category":"Coffee Shop","score":30.0},{"name":"Starbucks","distance":747,"country":"United States","city":"New York","latitude":40.7520899545,"longitude":-73.981358929,"coordinates":{"type":"Point","coordinates":[-73.981358929,40.7520899545]},"category":"Coffee Shop","score":30.0},{"name":"Starbucks","distance":197,"country":"United States","city":"New York","latitude":40.74405161,"longitude":-73.98373659,"coordinates":{"type":"Point","coordinates":[-73.98373659,40.74405161]},"category":"Coffee Shop","score":70.0},{"name":"Starbucks","distance":393,"country":"United States","city":"New York","latitude":40.745068,"longitude":-73.98686,"coordinates":{"type":"Point","coordinates":[-73.98686,40.745068]},"category":"Coffee Shop","score":70.0},{"name":"Starbucks","distance":421,"country":"United States","city":"New York","latitude":40.74179,"longitude":-73.980774,"coordinates":{"type":"Point","coordinates":[-73.980774,40.74179]},"category":"Coffee Shop","score":70.0},{"name":"Starbucks","distance":396,"country":"United States","city":"New York","latitude":40.748974,"longitude":-73.98229,"coordinates":{"type":"Point","coordinates":[-73.98229,40.748974]},"category":"Coffee Shop","score":70.0},{"name":"Starbucks","distance":809,"country":"United States","city":"New York","latitude":40.7518632977,"longitude":-73.9778033945,"coordinates":{"type":"Point","coordinates":[-73.9778033945,40.7518632977]},"category":"Coffee Shop","score":30.0},{"name":"Starbucks","distance":887,"country":"United States","city":"New York","latitude":40.75315692,"longitude":-73.97975945,"coordinates":{"type":"Point","coordinates":[-73.97975945,40.75315692]},"category":"Coffee Shop","score":30.0},{"name":"Starbucks","distance":939,"country":"United States","city":"New York","latitude":40.740383,"longitude":-73.991165,"coordinates":{"type":"Point","coordinates":[-73.991165,40.740383]},"category":"Coffee Shop","score":30.0},{"name":"Starbucks","distance":700,"country":"United States","city":"New York","latitude":40.75033,"longitude":-73.97704,"coordinates":{"type":"Point","coordinates":[-73.97704,40.75033]},"category":"Coffee Shop","score":30.0},{"name":"Starbucks","distance":977,"country":"United States","city":"New York","latitude":40.75119363,"longitude":-73.99093502,"coordinates":{"type":"Point","coordinates":[-73.99093502,40.75119363]},"category":"Coffee Shop","score":30.0},{"name":"Starbucks","distance":952,"country":"United States","city":"New York","latitude":40.746975,"longitude":-73.993324,"coordinates":{"type":"Point","coordinates":[-73.993324,40.746975]},"category":"Coffee Shop","score":30.0},{"name":"Starbucks","distance":947,"country":"United States","city":"New York","latitude":40.7499988082,"longitude":-73.9727522307,"coordinates":{"type":"Point","coordinates":[-73.9727522307,40.7499988082]},"category":"Coffee Shop","score":30.0},{"name":"Starbucks","distance":613,"country":"United States","city":"New York","latitude":40.75041692,"longitude":-73.97917487,"coordinates":{"type":"Point","coordinates":[-73.97917487,40.75041692]},"category":"Coffee Shop","score":30.0},{"name":"Starbucks","distance":995,"country":"United States","city":"New York","latitude":40.7515383,"longitude":-73.97362889,"coordinates":{"type":"Point","coordinates":[-73.97362889,40.7515383]},"category":"Coffee Shop","score":30.0},{"name":"Starbucks","distance":982,"country":"United States","city":"New York","latitude":40.73790176,"longitude":-73.98835362,"coordinates":{"type":"Point","coordinates":[-73.98835362,40.73790176]},"category":"Coffee Shop","score":30.0},{"name":"Starbucks","distance":734,"country":"United States","city":"New York","latitude":40.74927198,"longitude":-73.98927764,"coordinates":{"type":"Point","coordinates":[-73.98927764,40.74927198]},"category":"Coffee Shop","score":30.0},{"name":"Starbucks","distance":938,"country":"United States","city":"New York","latitude":40.7489585,"longitude":-73.99231501,"coordinates":{"type":"Point","coordinates":[-73.99231501,40.7489585]},"category":"Coffee Shop","score":30.0},{"name":"Starbucks","distance":573,"country":"United States","city":"New York","latitude":40.74051,"longitude":-73.98433,"coordinates":{"type":"Point","coordinates":[-73.98433,40.74051]},"category":"Coffee Shop","score":30.0},{"name":"Norman Thomas High School","distance":129,"country":"United States","city":"New York","latitude":40.746261,"longitude":-73.981172,"coordinates":{"type":"Point","coordinates":[-73.981172,40.746261]},"category":"School","score":100.0},{"name":"Maoz Vegan","distance":963,"country":"United States","city":"New York","latitude":40.751706,"longitude":-73.974375,"coordinates":{"type":"Point","coordinates":[-73.974375,40.751706]},"category":"Vegan","score":30.0},{"name":"Starbucks","distance":358,"country":"United States","city":"New York","latitude":40.705162,"longitude":-74.0113,"coordinates":{"type":"Point","coordinates":[-74.0113,40.705162]},"category":"Coffee Shop","score":70.0},{"name":"Starbucks","distance":391,"country":"United States","city":"New York","latitude":40.70435,"longitude":-74.013016,"coordinates":{"type":"Point","coordinates":[-74.013016,40.70435]},"category":"Coffee Shop","score":70.0},{"name":"Starbucks","distance":457,"country":"United States","city":"New York","latitude":40.7060815306,"longitude":-74.008755824,"coordinates":{"type":"Point","coordinates":[-74.008755824,40.7060815306]},"category":"Coffee Shop","score":70.0},{"name":"Starbucks","distance":678,"country":"United States","city":"New York","latitude":40.71220388,"longitude":-74.00805192,"coordinates":{"type":"Point","coordinates":[-74.00805192,40.71220388]},"category":"Coffee Shop","score":30.0},{"name":"Starbucks","distance":514,"country":"United States","city":"New York","latitude":40.70323823,"longitude":-74.01428898,"coordinates":{"type":"Point","coordinates":[-74.01428898,40.70323823]},"category":"Coffee Shop","score":30.0},{"name":"Starbucks","distance":446,"country":"United States","city":"New York","latitude":40.710922,"longitude":-74.010284,"coordinates":{"type":"Point","coordinates":[-74.010284,40.710922]},"category":"Coffee Shop","score":70.0},{"name":"Starbucks","distance":236,"country":"United States","city":"New York","latitude":40.70873,"longitude":-74.011116,"coordinates":{"type":"Point","coordinates":[-74.011116,40.70873]},"category":"Coffee Shop","score":70.0},{"name":"Starbucks","distance":651,"country":"United States","city":"New York","latitude":40.70480591,"longitude":-74.00706045,"coordinates":{"type":"Point","coordinates":[-74.00706045,40.70480591]},"category":"Coffee Shop","score":30.0},{"name":"Starbucks","distance":203,"country":"United States","city":"New York","latitude":40.70755596,"longitude":-74.01127283,"coordinates":{"type":"Point","coordinates":[-74.01127283,40.70755596]},"category":"Coffee Shop","score":70.0},{"name":"Starbucks","distance":774,"country":"United States","city":"New York","latitude":40.7138385165,"longitude":-74.0090257274,"coordinates":{"type":"Point","coordinates":[-74.0090257274,40.7138385165]},"category":"Coffee Shop","score":30.0},{"name":"Starbucks","distance":364,"country":"United States","city":"New York","latitude":40.70874,"longitude":-74.00951,"coordinates":{"type":"Point","coordinates":[-74.00951,40.70874]},"category":"Coffee Shop","score":70.0},{"name":"Starbucks","distance":719,"country":"United States","city":"New York","latitude":40.71159756,"longitude":-74.00672626,"coordinates":{"type":"Point","coordinates":[-74.00672626,40.71159756]},"category":"Coffee Shop","score":30.0},{"name":"Starbucks","distance":331,"country":"United States","city":"New York","latitude":40.70955912,"longitude":-74.01045367,"coordinates":{"type":"Point","coordinates":[-74.01045367,40.70955912]},"category":"Coffee Shop","score":70.0},{"name":"Starbucks","distance":833,"country":"United States","city":"New York","latitude":40.7111417092,"longitude":-74.0047961035,"coordinates":{"type":"Point","coordinates":[-74.0047961035,40.7111417092]},"category":"Coffee Shop","score":30.0},{"name":"Starbucks","distance":532,"country":"United States","city":"New York","latitude":40.708412,"longitude":-74.0074,"coordinates":{"type":"Point","coordinates":[-74.0074,40.708412]},"category":"Coffee Shop","score":30.0},{"name":"Starbucks","distance":526,"country":"United States","city":"New York","latitude":40.704548,"longitude":-74.00918,"coordinates":{"type":"Point","coordinates":[-74.00918,40.704548]},"category":"Coffee Shop","score":30.0},{"name":"Starbucks","distance":543,"country":"United States","city":"New York","latitude":40.71027979,"longitude":-74.0080802,"coordinates":{"type":"Point","coordinates":[-74.0080802,40.71027979]},"category":"Coffee Shop","score":30.0},{"name":"Starbucks","distance":620,"country":"United States","city":"New York","latitude":40.706318,"longitude":-74.006584,"coordinates":{"type":"Point","coordinates":[-74.006584,40.706318]},"category":"Coffee Shop","score":30.0},{"name":"Starbucks","distance":740,"country":"United States","city":"New York","latitude":40.70703711,"longitude":-74.00494971,"coordinates":{"type":"Point","coordinates":[-74.00494971,40.70703711]},"category":"Coffee Shop","score":30.0},{"name":"Starbucks","distance":159,"country":"United States","city":"New York","latitude":40.7092232575,"longitude":-74.0141356569,"coordinates":{"type":"Point","coordinates":[-74.0141356569,40.7092232575]},"category":"Coffee Shop","score":70.0},{"name":"Starbucks","distance":941,"country":"United States","city":"New York","latitude":40.715534,"longitude":-74.00903,"coordinates":{"type":"Point","coordinates":[-74.00903,40.715534]},"category":"Coffee Shop","score":30.0},{"name":"Starbucks","distance":386,"country":"United States","city":"New York","latitude":40.71102554,"longitude":-74.01545811,"coordinates":{"type":"Point","coordinates":[-74.01545811,40.71102554]},"category":"Coffee Shop","score":70.0},{"name":"Starbucks","distance":530,"country":"United States","city":"New York","latitude":40.7106426912,"longitude":-74.0085797483,"coordinates":{"type":"Point","coordinates":[-74.0085797483,40.7106426912]},"category":"Coffee Shop","score":30.0},{"name":"Starbucks","distance":566,"country":"United States","city":"New York","latitude":40.702785,"longitude":-74.0128,"coordinates":{"type":"Point","coordinates":[-74.0128,40.702785]},"category":"Coffee Shop","score":30.0},{"name":"Stuyvesant High School","distance":1088,"country":"United States","city":"New York","latitude":40.7176088795,"longitude":-74.013202812,"coordinates":{"type":"Point","coordinates":[-74.013202812,40.7176088795]},"category":"School","score":10.0},{"name":"Trinity Preschool","distance":151,"country":"United States","city":"New York","latitude":40.7082594814,"longitude":-74.0119576096,"coordinates":{"type":"Point","coordinates":[-74.0119576096,40.7082594814]},"category":"School","score":70.0},{"name":"Starbucks","distance":55,"country":"United States","city":"New York","latitude":40.727192,"longitude":-73.99546,"coordinates":{"type":"Point","coordinates":[-73.99546,40.727192]},"category":"Coffee Shop","score":100.0},{"name":"Starbucks","distance":414,"country":"United States","city":"New York","latitude":40.7299079823,"longitude":-73.9914074396,"coordinates":{"type":"Point","coordinates":[-73.9914074396,40.7299079823]},"category":"Coffee Shop","score":70.0},{"name":"Starbucks","distance":954,"country":"United States","city":"New York","latitude":40.73318,"longitude":-74.00293,"coordinates":{"type":"Point","coordinates":[-74.00293,40.73318]},"category":"Coffee Shop","score":30.0},{"name":"Starbucks","distance":767,"country":"United States","city":"New York","latitude":40.733033,"longitude":-73.999677,"coordinates":{"type":"Point","coordinates":[-73.999677,40.733033]},"category":"Coffee Shop","score":30.0},{"name":"Starbucks","distance":462,"country":"United States","city":"New York","latitude":40.72689,"longitude":-74.00026,"coordinates":{"type":"Point","coordinates":[-74.00026,40.72689]},"category":"Coffee Shop","score":70.0},{"name":"Starbucks","distance":761,"country":"United States","city":"New York","latitude":40.730647127,"longitude":-74.0026079004,"coordinates":{"type":"Point","coordinates":[-74.0026079004,40.730647127]},"category":"Coffee Shop","score":30.0},{"name":"Starbucks","distance":582,"country":"United States","city":"New York","latitude":40.7225849537,"longitude":-73.9980228048,"coordinates":{"type":"Point","coordinates":[-73.9980228048,40.7225849537]},"category":"Coffee Shop","score":30.0},{"name":"Starbucks","distance":964,"country":"United States","city":"New York","latitude":40.735023,"longitude":-73.989845,"coordinates":{"type":"Point","coordinates":[-73.989845,40.735023]},"category":"Coffee Shop","score":30.0},{"name":"Starbucks","distance":933,"country":"United States","city":"New York","latitude":40.7257200435,"longitude":-74.0056855884,"coordinates":{"type":"Point","coordinates":[-74.0056855884,40.7257200435]},"category":"Coffee Shop","score":30.0},{"name":"Starbucks","distance":669,"country":"United States","city":"New York","latitude":40.72449233,"longitude":-73.98771484,"coordinates":{"type":"Point","coordinates":[-73.98771484,40.72449233]},"category":"Coffee Shop","score":30.0},{"name":"Starbucks","distance":972,"country":"United States","city":"New York","latitude":40.71925187,"longitude":-73.99004522,"coordinates":{"type":"Point","coordinates":[-73.99004522,40.71925187]},"category":"Coffee Shop","score":30.0},{"name":"Starbucks","distance":903,"country":"United States","city":"New York","latitude":40.7198331683,"longitude":-73.9992526383,"coordinates":{"type":"Point","coordinates":[-73.9992526383,40.7198331683]},"category":"Coffee Shop","score":30.0},{"name":"Starbucks","distance":295,"country":"United States","city":"New York","latitude":40.729655,"longitude":-73.996179,"coordinates":{"type":"Point","coordinates":[-73.996179,40.729655]},"category":"Coffee Shop","score":70.0},{"name":"Momofuku Ss\u00e4m Bar","distance":925,"country":"United States","city":"New York","latitude":40.7317112085,"longitude":-73.9855708613,"coordinates":{"type":"Point","coordinates":[-73.9855708613,40.7317112085]},"category":"Bar","score":30.0},{"name":"Urban Vegan Kitchen","distance":801,"country":"United States","city":"New York","latitude":40.7300187924,"longitude":-74.0035487152,"coordinates":{"type":"Point","coordinates":[-74.0035487152,40.7300187924]},"category":"Vegan","score":30.0},{"name":"Starbucks","distance":442,"country":"United States","city":"Santa Monica","latitude":34.010796383,"longitude":-118.49153418,"coordinates":{"type":"Point","coordinates":[-118.49153418,34.010796383]},"category":"Coffee Shop","score":70.0},{"name":"Starbucks","distance":827,"country":"United States","city":"Santa Monica","latitude":34.013973,"longitude":-118.493195,"coordinates":{"type":"Point","coordinates":[-118.493195,34.013973]},"category":"Coffee Shop","score":30.0},{"name":"Starbucks","distance":940,"country":"United States","city":"Santa Monica","latitude":34.0011190655,"longitude":-118.4825640252,"coordinates":{"type":"Point","coordinates":[-118.4825640252,34.0011190655]},"category":"Coffee Shop","score":30.0},{"name":"Starbucks","distance":828,"country":"United States","city":"Santa Monica","latitude":34.0120661618,"longitude":-118.4830524496,"coordinates":{"type":"Point","coordinates":[-118.4830524496,34.0120661618]},"category":"Coffee Shop","score":30.0},{"name":"Santa Monica Airport (SMO) (Santa Monica Airport)","distance":4037,"country":"United States","city":"Santa Monica","latitude":34.0168582524,"longitude":-118.4476068043,"coordinates":{"type":"Point","coordinates":[-118.4476068043,34.0168582524]},"category":"Airport","score":1.0},{"name":"Santa Monica High School","distance":567,"country":"United States","city":"Santa Monica","latitude":34.011716219,"longitude":-118.4871062448,"coordinates":{"type":"Point","coordinates":[-118.4871062448,34.011716219]},"category":"School","score":30.0},{"name":"Elovate Vegan Kitchen","distance":426,"country":"United States","city":"Santa Monica","latitude":34.0106691,"longitude":-118.4914694,"coordinates":{"type":"Point","coordinates":[-118.4914694,34.0106691]},"category":"Vegan","score":70.0},{"name":"Starbucks","distance":318,"country":"United States","city":"New York","latitude":40.73628194,"longitude":-73.99120667,"coordinates":{"type":"Point","coordinates":[-73.99120667,40.73628194]},"category":"Coffee Shop","score":70.0},{"name":"Starbucks","distance":774,"country":"United States","city":"New York","latitude":40.740383,"longitude":-73.991165,"coordinates":{"type":"Point","coordinates":[-73.991165,40.740383]},"category":"Coffee Shop","score":30.0},{"name":"Starbucks","distance":201,"country":"United States","city":"New York","latitude":40.735023,"longitude":-73.989845,"coordinates":{"type":"Point","coordinates":[-73.989845,40.735023]},"category":"Coffee Shop","score":70.0},{"name":"Starbucks","distance":544,"country":"United States","city":"New York","latitude":40.73790176,"longitude":-73.98835362,"coordinates":{"type":"Point","coordinates":[-73.98835362,40.73790176]},"category":"Coffee Shop","score":30.0},{"name":"Starbucks","distance":970,"country":"United States","city":"New York","latitude":40.739218,"longitude":-73.999567,"coordinates":{"type":"Point","coordinates":[-73.999567,40.739218]},"category":"Coffee Shop","score":30.0},{"name":"Starbucks","distance":605,"country":"United States","city":"New York","latitude":40.73698,"longitude":-73.9964,"coordinates":{"type":"Point","coordinates":[-73.9964,40.73698]},"category":"Coffee Shop","score":30.0},{"name":"Starbucks","distance":393,"country":"United States","city":"New York","latitude":40.7299079823,"longitude":-73.9914074396,"coordinates":{"type":"Point","coordinates":[-73.9914074396,40.7299079823]},"category":"Coffee Shop","score":70.0},{"name":"Starbucks","distance":736,"country":"United States","city":"New York","latitude":40.733033,"longitude":-73.999677,"coordinates":{"type":"Point","coordinates":[-73.999677,40.733033]},"category":"Coffee Shop","score":30.0},{"name":"Starbucks","distance":791,"country":"United States","city":"New York","latitude":40.727192,"longitude":-73.99546,"coordinates":{"type":"Point","coordinates":[-73.99546,40.727192]},"category":"Coffee Shop","score":30.0},{"name":"Starbucks","distance":370,"country":"United States","city":"New York","latitude":40.73375,"longitude":-73.986595,"coordinates":{"type":"Point","coordinates":[-73.986595,40.73375]},"category":"Coffee Shop","score":70.0},{"name":"Starbucks","distance":821,"country":"United States","city":"New York","latitude":40.74016,"longitude":-73.98697,"coordinates":{"type":"Point","coordinates":[-73.98697,40.74016]},"category":"Coffee Shop","score":30.0},{"name":"Starbucks","distance":917,"country":"United States","city":"New York","latitude":40.74166,"longitude":-73.99031,"coordinates":{"type":"Point","coordinates":[-73.99031,40.74166]},"category":"Coffee Shop","score":30.0},{"name":"Starbucks","distance":713,"country":"United States","city":"New York","latitude":40.7309,"longitude":-73.9832,"coordinates":{"type":"Point","coordinates":[-73.9832,40.7309]},"category":"Coffee Shop","score":30.0},{"name":"Starbucks","distance":856,"country":"United States","city":"New York","latitude":40.73323,"longitude":-73.98082,"coordinates":{"type":"Point","coordinates":[-73.98082,40.73323]},"category":"Coffee Shop","score":30.0},{"name":"Starbucks","distance":873,"country":"United States","city":"New York","latitude":40.738792,"longitude":-73.9834,"coordinates":{"type":"Point","coordinates":[-73.9834,40.738792]},"category":"Coffee Shop","score":30.0},{"name":"Starbucks","distance":966,"country":"United States","city":"New York","latitude":40.74051,"longitude":-73.98433,"coordinates":{"type":"Point","coordinates":[-73.98433,40.74051]},"category":"Coffee Shop","score":30.0},{"name":"Starbucks","distance":956,"country":"United States","city":"New York","latitude":40.741844,"longitude":-73.99324,"coordinates":{"type":"Point","coordinates":[-73.99324,40.741844]},"category":"Coffee Shop","score":30.0},{"name":"Starbucks","distance":608,"country":"United States","city":"New York","latitude":40.729655,"longitude":-73.996179,"coordinates":{"type":"Point","coordinates":[-73.996179,40.729655]},"category":"Coffee Shop","score":30.0},{"name":"Grace Church School","distance":188,"country":"United States","city":"New York","latitude":40.7318637185,"longitude":-73.9901170105,"coordinates":{"type":"Point","coordinates":[-73.9901170105,40.7318637185]},"category":"School","score":70.0},{"name":"Preschool of America","distance":756,"country":"United States","city":"New York","latitude":40.739357915,"longitude":-73.9953413079,"coordinates":{"type":"Point","coordinates":[-73.9953413079,40.739357915]},"category":"School","score":30.0},{"name":"Greenwich Village School","distance":756,"country":"United States","city":"New York","latitude":40.7357224485,"longitude":-73.9994133208,"coordinates":{"type":"Point","coordinates":[-73.9994133208,40.7357224485]},"category":"School","score":30.0},{"name":"Momofuku Ss\u00e4m Bar","distance":493,"country":"United States","city":"New York","latitude":40.7317112085,"longitude":-73.9855708613,"coordinates":{"type":"Point","coordinates":[-73.9855708613,40.7317112085]},"category":"Bar","score":70.0},{"name":"Starbucks","distance":311,"country":"United States","city":"New York","latitude":40.705162,"longitude":-74.0113,"coordinates":{"type":"Point","coordinates":[-74.0113,40.705162]},"category":"Coffee Shop","score":70.0},{"name":"Starbucks","distance":288,"country":"United States","city":"New York","latitude":40.7060815306,"longitude":-74.008755824,"coordinates":{"type":"Point","coordinates":[-74.008755824,40.7060815306]},"category":"Coffee Shop","score":70.0},{"name":"Starbucks","distance":432,"country":"United States","city":"New York","latitude":40.70435,"longitude":-74.013016,"coordinates":{"type":"Point","coordinates":[-74.013016,40.70435]},"category":"Coffee Shop","score":70.0},{"name":"Starbucks","distance":539,"country":"United States","city":"New York","latitude":40.71220388,"longitude":-74.00805192,"coordinates":{"type":"Point","coordinates":[-74.00805192,40.71220388]},"category":"Coffee Shop","score":30.0},{"name":"Starbucks","distance":337,"country":"United States","city":"New York","latitude":40.710922,"longitude":-74.010284,"coordinates":{"type":"Point","coordinates":[-74.010284,40.710922]},"category":"Coffee Shop","score":70.0},{"name":"Starbucks","distance":489,"country":"United States","city":"New York","latitude":40.70480591,"longitude":-74.00706045,"coordinates":{"type":"Point","coordinates":[-74.00706045,40.70480591]},"category":"Coffee Shop","score":70.0},{"name":"Starbucks","distance":589,"country":"United States","city":"New York","latitude":40.70323823,"longitude":-74.01428898,"coordinates":{"type":"Point","coordinates":[-74.01428898,40.70323823]},"category":"Coffee Shop","score":30.0},{"name":"Starbucks","distance":86,"country":"United States","city":"New York","latitude":40.70873,"longitude":-74.011116,"coordinates":{"type":"Point","coordinates":[-74.011116,40.70873]},"category":"Coffee Shop","score":100.0},{"name":"Starbucks","distance":161,"country":"United States","city":"New York","latitude":40.70874,"longitude":-74.00951,"coordinates":{"type":"Point","coordinates":[-74.00951,40.70874]},"category":"Coffee Shop","score":70.0},{"name":"Starbucks","distance":46,"country":"United States","city":"New York","latitude":40.70755596,"longitude":-74.01127283,"coordinates":{"type":"Point","coordinates":[-74.01127283,40.70755596]},"category":"Coffee Shop","score":100.0},{"name":"Starbucks","distance":678,"country":"United States","city":"New York","latitude":40.7138385165,"longitude":-74.0090257274,"coordinates":{"type":"Point","coordinates":[-74.0090257274,40.7138385165]},"category":"Coffee Shop","score":30.0},{"name":"Starbucks","distance":549,"country":"United States","city":"New York","latitude":40.71159756,"longitude":-74.00672626,"coordinates":{"type":"Point","coordinates":[-74.00672626,40.71159756]},"category":"Coffee Shop","score":30.0},{"name":"Starbucks","distance":640,"country":"United States","city":"New York","latitude":40.7111417092,"longitude":-74.0047961035,"coordinates":{"type":"Point","coordinates":[-74.0047961035,40.7111417092]},"category":"Coffee Shop","score":30.0},{"name":"Starbucks","distance":187,"country":"United States","city":"New York","latitude":40.70955912,"longitude":-74.01045367,"coordinates":{"type":"Point","coordinates":[-74.01045367,40.70955912]},"category":"Coffee Shop","score":70.0},{"name":"Starbucks","distance":317,"country":"United States","city":"New York","latitude":40.708412,"longitude":-74.0074,"coordinates":{"type":"Point","coordinates":[-74.0074,40.708412]},"category":"Coffee Shop","score":70.0},{"name":"Starbucks","distance":423,"country":"United States","city":"New York","latitude":40.706318,"longitude":-74.006584,"coordinates":{"type":"Point","coordinates":[-74.006584,40.706318]},"category":"Coffee Shop","score":70.0},{"name":"Starbucks","distance":364,"country":"United States","city":"New York","latitude":40.71027979,"longitude":-74.0080802,"coordinates":{"type":"Point","coordinates":[-74.0080802,40.71027979]},"category":"Coffee Shop","score":70.0},{"name":"Starbucks","distance":530,"country":"United States","city":"New York","latitude":40.70703711,"longitude":-74.00494971,"coordinates":{"type":"Point","coordinates":[-74.00494971,40.70703711]},"category":"Coffee Shop","score":30.0},{"name":"Starbucks","distance":412,"country":"United States","city":"New York","latitude":40.704548,"longitude":-74.00918,"coordinates":{"type":"Point","coordinates":[-74.00918,40.704548]},"category":"Coffee Shop","score":70.0},{"name":"Starbucks","distance":883,"country":"United States","city":"New York","latitude":40.714855,"longitude":-74.005936,"coordinates":{"type":"Point","coordinates":[-74.005936,40.714855]},"category":"Coffee Shop","score":30.0},{"name":"Starbucks","distance":861,"country":"United States","city":"New York","latitude":40.715534,"longitude":-74.00903,"coordinates":{"type":"Point","coordinates":[-74.00903,40.715534]},"category":"Coffee Shop","score":30.0},{"name":"Starbucks","distance":291,"country":"United States","city":"New York","latitude":40.7092232575,"longitude":-74.0141356569,"coordinates":{"type":"Point","coordinates":[-74.0141356569,40.7092232575]},"category":"Coffee Shop","score":70.0},{"name":"Starbucks","distance":501,"country":"United States","city":"New York","latitude":40.71102554,"longitude":-74.01545811,"coordinates":{"type":"Point","coordinates":[-74.01545811,40.71102554]},"category":"Coffee Shop","score":30.0},{"name":"Starbucks","distance":367,"country":"United States","city":"New York","latitude":40.7106426912,"longitude":-74.0085797483,"coordinates":{"type":"Point","coordinates":[-74.0085797483,40.7106426912]},"category":"Coffee Shop","score":70.0},{"name":"Stuyvesant High School","distance":1089,"country":"United States","city":"New York","latitude":40.7176088795,"longitude":-74.013202812,"coordinates":{"type":"Point","coordinates":[-74.013202812,40.7176088795]},"category":"School","score":10.0},{"name":"Trinity Preschool","distance":78,"country":"United States","city":"New York","latitude":40.7082594814,"longitude":-74.0119576096,"coordinates":{"type":"Point","coordinates":[-74.0119576096,40.7082594814]},"category":"School","score":100.0},{"name":"Starbucks","distance":358,"country":"United States","city":"Santa Monica","latitude":34.010796383,"longitude":-118.49153418,"coordinates":{"type":"Point","coordinates":[-118.49153418,34.010796383]},"category":"Coffee Shop","score":70.0},{"name":"Starbucks","distance":743,"country":"United States","city":"Santa Monica","latitude":34.013973,"longitude":-118.493195,"coordinates":{"type":"Point","coordinates":[-118.493195,34.013973]},"category":"Coffee Shop","score":30.0},{"name":"Starbucks","distance":763,"country":"United States","city":"Santa Monica","latitude":34.0120661618,"longitude":-118.4830524496,"coordinates":{"type":"Point","coordinates":[-118.4830524496,34.0120661618]},"category":"Coffee Shop","score":30.0},{"name":"Santa Monica Airport (SMO) (Santa Monica Airport)","distance":4006,"country":"United States","city":"Santa Monica","latitude":34.0168582524,"longitude":-118.4476068043,"coordinates":{"type":"Point","coordinates":[-118.4476068043,34.0168582524]},"category":"Airport","score":1.0},{"name":"Santa Monica High School","distance":480,"country":"United States","city":"Santa Monica","latitude":34.011716219,"longitude":-118.4871062448,"coordinates":{"type":"Point","coordinates":[-118.4871062448,34.011716219]},"category":"School","score":70.0},{"name":"Step by Step Early Childhood","distance":1481,"country":"United States","city":"Santa Monica","latitude":34.017876,"longitude":-118.478965,"coordinates":{"type":"Point","coordinates":[-118.478965,34.017876]},"category":"School","score":10.0},{"name":"Elovate Vegan Kitchen","distance":343,"country":"United States","city":"Santa Monica","latitude":34.0106691,"longitude":-118.4914694,"coordinates":{"type":"Point","coordinates":[-118.4914694,34.0106691]},"category":"Vegan","score":70.0},{"name":"Starbucks","distance":268,"country":"United States","city":"San Francisco","latitude":37.77708998,"longitude":-122.4172976,"coordinates":{"type":"Point","coordinates":[-122.4172976,37.77708998]},"category":"Coffee Shop","score":70.0},{"name":"Starbucks","distance":1512,"country":"United States","city":"San Francisco","latitude":37.78617,"longitude":-122.40906,"coordinates":{"type":"Point","coordinates":[-122.40906,37.78617]},"category":"Coffee Shop","score":10.0},{"name":"Starbucks","distance":1817,"country":"United States","city":"San Francisco","latitude":37.7891481546,"longitude":-122.4084517461,"coordinates":{"type":"Point","coordinates":[-122.4084517461,37.7891481546]},"category":"Coffee Shop","score":10.0},{"name":"Starbucks","distance":2016,"country":"United States","city":"San Francisco","latitude":37.7787041301,"longitude":-122.3967274809,"coordinates":{"type":"Point","coordinates":[-122.3967274809,37.7787041301]},"category":"Coffee Shop","score":1.0},{"name":"Starbucks","distance":2087,"country":"United States","city":"San Francisco","latitude":37.7609413648,"longitude":-122.4346082938,"coordinates":{"type":"Point","coordinates":[-122.4346082938,37.7609413648]},"category":"Coffee Shop","score":1.0},{"name":"Starbucks","distance":1703,"country":"United States","city":"San Francisco","latitude":37.78615912,"longitude":-122.4056946,"coordinates":{"type":"Point","coordinates":[-122.4056946,37.78615912]},"category":"Coffee Shop","score":10.0},{"name":"Starbucks","distance":1574,"country":"United States","city":"San Francisco","latitude":37.76288,"longitude":-122.410435,"coordinates":{"type":"Point","coordinates":[-122.410435,37.76288]},"category":"Coffee Shop","score":10.0},{"name":"Starbucks","distance":1493,"country":"United States","city":"San Francisco","latitude":37.77019,"longitude":-122.403465,"coordinates":{"type":"Point","coordinates":[-122.403465,37.77019]},"category":"Coffee Shop","score":10.0},{"name":"Starbucks","distance":2221,"country":"United States","city":"San Francisco","latitude":37.7887916506,"longitude":-122.4007102485,"coordinates":{"type":"Point","coordinates":[-122.4007102485,37.7887916506]},"category":"Coffee Shop","score":1.0},{"name":"Starbucks","distance":1369,"country":"United States","city":"San Francisco","latitude":37.782738,"longitude":-122.431519,"coordinates":{"type":"Point","coordinates":[-122.431519,37.782738]},"category":"Coffee Shop","score":10.0},{"name":"Starbucks","distance":1695,"country":"United States","city":"San Francisco","latitude":37.790268,"longitude":-122.422066,"coordinates":{"type":"Point","coordinates":[-122.422066,37.790268]},"category":"Coffee Shop","score":10.0},{"name":"Starbucks","distance":2113,"country":"United States","city":"San Francisco","latitude":37.790179,"longitude":-122.433972,"coordinates":{"type":"Point","coordinates":[-122.433972,37.790179]},"category":"Coffee Shop","score":1.0},{"name":"Starbucks","distance":1051,"country":"United States","city":"San Francisco","latitude":37.769122,"longitude":-122.428353,"coordinates":{"type":"Point","coordinates":[-122.428353,37.769122]},"category":"Coffee Shop","score":10.0},{"name":"Starbucks","distance":1954,"country":"United States","city":"San Francisco","latitude":37.78736,"longitude":-122.40318,"coordinates":{"type":"Point","coordinates":[-122.40318,37.78736]},"category":"Coffee Shop","score":10.0},{"name":"Starbucks","distance":1732,"country":"United States","city":"San Francisco","latitude":37.7658775,"longitude":-122.4034495,"coordinates":{"type":"Point","coordinates":[-122.4034495,37.7658775]},"category":"Coffee Shop","score":10.0},{"name":"Starbucks","distance":2604,"country":"United States","city":"San Francisco","latitude":37.794613,"longitude":-122.40268,"coordinates":{"type":"Point","coordinates":[-122.40268,37.794613]},"category":"Coffee Shop","score":1.0},{"name":"Starbucks","distance":2416,"country":"United States","city":"San Francisco","latitude":37.7967981384,"longitude":-122.4220575745,"coordinates":{"type":"Point","coordinates":[-122.4220575745,37.7967981384]},"category":"Coffee Shop","score":1.0},{"name":"Starbucks","distance":2065,"country":"United States","city":"San Francisco","latitude":37.79042546,"longitude":-122.4057733,"coordinates":{"type":"Point","coordinates":[-122.4057733,37.79042546]},"category":"Coffee Shop","score":1.0},{"name":"Starbucks","distance":2477,"country":"United States","city":"San Francisco","latitude":37.78946201,"longitude":-122.3975822,"coordinates":{"type":"Point","coordinates":[-122.3975822,37.78946201]},"category":"Coffee Shop","score":1.0},{"name":"Starbucks","distance":2174,"country":"United States","city":"San Francisco","latitude":37.78598,"longitude":-122.43983,"coordinates":{"type":"Point","coordinates":[-122.43983,37.78598]},"category":"Coffee Shop","score":1.0},{"name":"Starbucks","distance":2690,"country":"United States","city":"San Francisco","latitude":37.7976775938,"longitude":-122.4304545589,"coordinates":{"type":"Point","coordinates":[-122.4304545589,37.7976775938]},"category":"Coffee Shop","score":1.0},{"name":"Starbucks","distance":2712,"country":"United States","city":"San Francisco","latitude":37.7898189828,"longitude":-122.3945345509,"coordinates":{"type":"Point","coordinates":[-122.3945345509,37.7898189828]},"category":"Coffee Shop","score":1.0},{"name":"Starbucks","distance":2202,"country":"United States","city":"San Francisco","latitude":37.789594,"longitude":-122.402032,"coordinates":{"type":"Point","coordinates":[-122.402032,37.789594]},"category":"Coffee Shop","score":1.0},{"name":"Starbucks","distance":3765,"country":"United States","city":"San Francisco","latitude":37.79918154,"longitude":-122.4494085,"coordinates":{"type":"Point","coordinates":[-122.4494085,37.79918154]},"category":"Coffee Shop","score":1.0},{"name":"Starbucks","distance":2875,"country":"United States","city":"San Francisco","latitude":37.7513732452,"longitude":-122.4318245167,"coordinates":{"type":"Point","coordinates":[-122.4318245167,37.7513732452]},"category":"Coffee Shop","score":1.0},{"name":"Mission Montessori","distance":158,"country":"United States","city":"San Francisco","latitude":37.776597,"longitude":-122.418816,"coordinates":{"type":"Point","coordinates":[-122.418816,37.776597]},"category":"School","score":70.0},{"name":"Alta Vista School","distance":746,"country":"United States","city":"San Francisco","latitude":37.768822,"longitude":-122.42181,"coordinates":{"type":"Point","coordinates":[-122.42181,37.768822]},"category":"School","score":30.0},{"name":"AltSchool","distance":771,"country":"United States","city":"San Francisco","latitude":37.7742755382,"longitude":-122.4105158079,"coordinates":{"type":"Point","coordinates":[-122.4105158079,37.7742755382]},"category":"School","score":30.0},{"name":"Absinthe Brasserie & Bar","distance":389,"country":"United States","city":"San Francisco","latitude":37.7770088435,"longitude":-122.4230037163,"coordinates":{"type":"Point","coordinates":[-122.4230037163,37.7770088435]},"category":"Bar","score":70.0},{"name":"Audio Nightclub","distance":636,"country":"United States","city":"San Francisco","latitude":37.771378317,"longitude":-122.4138318676,"coordinates":{"type":"Point","coordinates":[-122.4138318676,37.771378317]},"category":"Bar","score":30.0},{"name":"Golden Era Vegan","distance":730,"country":"United States","city":"San Francisco","latitude":37.7814947391,"longitude":-122.4168223165,"coordinates":{"type":"Point","coordinates":[-122.4168223165,37.7814947391]},"category":"Vegan","score":30.0},{"name":"Starbucks","distance":311,"country":"Nederland","city":"Amsterdam","latitude":52.3660767847,"longitude":4.8974308039,"coordinates":{"type":"Point","coordinates":[4.8974308039,52.3660767847]},"category":"Coffee Shop","score":70.0},{"name":"Starbucks","distance":270,"country":"Nederland","city":"Amsterdam","latitude":52.3671874059,"longitude":4.8896454089,"coordinates":{"type":"Point","coordinates":[4.8896454089,52.3671874059]},"category":"Coffee Shop","score":70.0},{"name":"Starbucks","distance":647,"country":"Nederland","city":"Amsterdam","latitude":52.3645789092,"longitude":4.8835384561,"coordinates":{"type":"Point","coordinates":[4.8835384561,52.3645789092]},"category":"Coffee Shop","score":30.0},{"name":"Goethe Instituut","distance":131,"country":"Nederland","city":"Amsterdam","latitude":52.365238158,"longitude":4.891138931,"coordinates":{"type":"Point","coordinates":[4.891138931,52.365238158]},"category":"School","score":100.0},{"name":"De School Van Mieke Petiet","distance":608,"country":"Nederland","city":"Amsterdam","latitude":52.365848679,"longitude":4.8839208969,"coordinates":{"type":"Point","coordinates":[4.8839208969,52.365848679]},"category":"School","score":30.0},{"name":"Altra College","distance":853,"country":"Nederland","city":"Amsterdam","latitude":52.35854029,"longitude":4.8886156082,"coordinates":{"type":"Point","coordinates":[4.8886156082,52.35854029]},"category":"School","score":30.0},{"name":"Cue Bar","distance":323,"country":"Nederland","city":"Amsterdam","latitude":52.3654871781,"longitude":4.8976121831,"coordinates":{"type":"Point","coordinates":[4.8976121831,52.3654871781]},"category":"Bar","score":70.0},{"name":"Vegan Junk Food Bar","distance":113,"country":"Nederland","city":"Amsterdam","latitude":52.3663911764,"longitude":4.8915628145,"coordinates":{"type":"Point","coordinates":[4.8915628145,52.3663911764]},"category":"Vegan","score":100.0},{"name":"Vegan Junk Food Bar","distance":969,"country":"Nederland","city":"Amsterdam","latitude":52.3571068804,"longitude":4.8911839547,"coordinates":{"type":"Point","coordinates":[4.8911839547,52.3571068804]},"category":"Vegan","score":30.0},{"name":"Starbucks","distance":606,"country":"United States","city":"New York","latitude":40.73725,"longitude":-74.00172,"coordinates":{"type":"Point","coordinates":[-74.00172,40.73725]},"category":"Coffee Shop","score":30.0},{"name":"Starbucks","distance":625,"country":"United States","city":"New York","latitude":40.743,"longitude":-74.00034,"coordinates":{"type":"Point","coordinates":[-74.00034,40.743]},"category":"Coffee Shop","score":30.0},{"name":"Starbucks","distance":416,"country":"United States","city":"New York","latitude":40.739376,"longitude":-74.00261,"coordinates":{"type":"Point","coordinates":[-74.00261,40.739376]},"category":"Coffee Shop","score":70.0},{"name":"Starbucks","distance":665,"country":"United States","city":"New York","latitude":40.739218,"longitude":-73.999567,"coordinates":{"type":"Point","coordinates":[-73.999567,40.739218]},"category":"Coffee Shop","score":30.0},{"name":"Starbucks","distance":920,"country":"United States","city":"New York","latitude":40.73318,"longitude":-74.00293,"coordinates":{"type":"Point","coordinates":[-74.00293,40.73318]},"category":"Coffee Shop","score":30.0},{"name":"Starbucks","distance":496,"country":"United States","city":"New York","latitude":40.741154,"longitude":-74.0013,"coordinates":{"type":"Point","coordinates":[-74.0013,40.741154]},"category":"Coffee Shop","score":70.0},{"name":"Starbucks","distance":856,"country":"United States","city":"New York","latitude":40.745102,"longitude":-73.99874,"coordinates":{"type":"Point","coordinates":[-73.99874,40.745102]},"category":"Coffee Shop","score":30.0},{"name":"Starbucks","distance":793,"country":"United States","city":"New York","latitude":40.7337126023,"longitude":-74.0062751998,"coordinates":{"type":"Point","coordinates":[-74.0062751998,40.7337126023]},"category":"Coffee Shop","score":30.0},{"name":"Village Community School","distance":822,"country":"United States","city":"New York","latitude":40.7334554751,"longitude":-74.0082311401,"coordinates":{"type":"Point","coordinates":[-74.0082311401,40.7334554751]},"category":"School","score":30.0},{"name":"Greenwich Village School","distance":864,"country":"United States","city":"New York","latitude":40.7357224485,"longitude":-73.9994133208,"coordinates":{"type":"Point","coordinates":[-73.9994133208,40.7357224485]},"category":"School","score":30.0},{"name":"Public School 3","distance":918,"country":"United States","city":"New York","latitude":40.73257888,"longitude":-74.0063570326,"coordinates":{"type":"Point","coordinates":[-74.0063570326,40.73257888]},"category":"School","score":30.0},{"name":"Preschool of America","distance":1010,"country":"United States","city":"New York","latitude":40.739357915,"longitude":-73.9953413079,"coordinates":{"type":"Point","coordinates":[-73.9953413079,40.739357915]},"category":"School","score":10.0},{"name":"MS 297 Middle School","distance":1056,"country":"United States","city":"New York","latitude":40.731315,"longitude":-74.00746,"coordinates":{"type":"Point","coordinates":[-74.00746,40.731315]},"category":"School","score":10.0},{"name":"Plunge Rooftop Bar & Lounge","distance":153,"country":"United States","city":"New York","latitude":40.7399553591,"longitude":-74.0057329024,"coordinates":{"type":"Point","coordinates":[-74.0057329024,40.7399553591]},"category":"Bar","score":70.0}]