[{"name":"Starbucks","country":"USA","city":"Palo Alto","coordinates":{"type":"Point","coordinates":[-122.1604894,37.446737]},"longitude":-122.1604894,"latitude":37.446737,"category":"Coffee Shop","score":1.0},{"name":"Starbucks","country":"USA","city":"Palo Alto","coordinates":{"type":"Point","coordinates":[-122.1718535646,37.443713421]},"longitude":-122.1718535646,"latitude":37.443713421,"category":"Coffee Shop","score":3.0},{"name":"Starbucks","country":"USA","city":"Menlo Park","coordinates":{"type":"Point","coordinates":[-122.1803583,37.45192561]},"longitude":-122.1803583,"latitude":37.45192561,"category":"Coffee Shop","score":4.0},{"name":"Friday Night Waltz","country":"USA","city":"Palo Alto","coordinates":{"type":"Point","coordinates":[-122.1566349375,37.4493414745]},"longitude":-122.1566349375,"latitude":37.4493414745,"category":"Bar","score":3.0},{"name":"Starbucks","country":"USA","city":"San Mateo","coordinates":{"type":"Point","coordinates":[-122.324005,37.56289]},"longitude":-122.324005,"latitude":37.56289,"category":"Coffee Shop","score":2.0},{"name":"Starbucks","country":"USA","city":"San Mateo","coordinates":{"type":"Point","coordinates":[-122.3333638737,37.5798265158]},"longitude":-122.3333638737,"latitude":37.5798265158,"category":"Coffee Shop","score":4.0},{"name":"Starbucks","country":"USA","city":"San Mateo","coordinates":{"type":"Point","coordinates":[-122.3138416,37.55226034]},"longitude":-122.3138416,"latitude":37.55226034,"category":"Coffee Shop","score":4.0},{"name":"San Francisco International Airport (SFO) (San Francisco International Airport)","country":"USA","city":"San Francisco","coordinates":{"type":"Point","coordinates":[-122.3870944977,37.6167130001]},"longitude":-122.3870944977,"latitude":37.6167130001,"category":"Airport","score":2.0},{"name":"San Carlos Airport (SQL) (San Carlos Airport)","country":"USA","city":"San Carlos","coordinates":{"type":"Point","coordinates":[-122.2512780923,37.5151071433]},"longitude":-122.2512780923,"latitude":37.5151071433,"category":"Airport","score":2.0},{"name":"North Shoreview Montessori","country":"USA","city":"San Mateo","coordinates":{"type":"Point","coordinates":[-122.3166825684,37.5748835977]},"longitude":-122.3166825684,"latitude":37.5748835977,"category":"School","score":3.0},{"name":"St. Timothy Catholic School","country":"USA","city":"San Mateo","coordinates":{"type":"Point","coordinates":[-122.3111308853,37.5739248347]},"longitude":-122.3111308853,"latitude":37.5739248347,"category":"School","score":3.0},{"name":"St. Matthew Catholic School","country":"USA","city":"San Mateo","coordinates":{"type":"Point","coordinates":[-122.3221364075,37.5579101647]},"longitude":-122.3221364075,"latitude":37.5579101647,"category":"School","score":3.0},{"name":"Petite Sorbonne Preschool","country":"USA","city":"San Mateo","coordinates":{"type":"Point","coordinates":[-122.329469574,37.5722549891]},"longitude":-122.329469574,"latitude":37.5722549891,"category":"School","score":2.0},{"name":"Highland Montessori","country":"USA","city":"San Mateo","coordinates":{"type":"Point","coordinates":[-122.336815,37.573558]},"longitude":-122.336815,"latitude":37.573558,"category":"School","score":3.0},{"name":"Starbucks","country":"USA","city":"New York","coordinates":{"type":"Point","coordinates":[-73.985579,40.760041]},"longitude":-73.985579,"latitude":40.760041,"category":"Coffee Shop","score":2.0},{"name":"Starbucks","country":"USA","city":"New York","coordinates":{"type":"Point","coordinates":[-73.99094694,40.75663838]},"longitude":-73.99094694,"latitude":40.75663838,"category":"Coffee Shop","score":2.0},{"name":"Starbucks","country":"USA","city":"New York","coordinates":{"type":"Point","coordinates":[-73.9838093298,40.7605669874]},"longitude":-73.9838093298,"latitude":40.7605669874,"category":"Coffee Shop","score":2.0},{"name":"Starbucks","country":"USA","city":"New York","coordinates":{"type":"Point","coordinates":[-73.9870461202,40.7542922234]},"longitude":-73.9870461202,"latitude":40.7542922234,"category":"Coffee Shop","score":2.0},{"name":"Starbucks","country":"USA","city":"New York","coordinates":{"type":"Point","coordinates":[-73.98719,40.760445]},"longitude":-73.98719,"latitude":40.760445,"category":"Coffee Shop","score":2.0},{"name":"Starbucks","country":"USA","city":"New York","coordinates":{"type":"Point","coordinates":[-73.9836305544,40.7621108134]},"longitude":-73.9836305544,"latitude":40.7621108134,"category":"Coffee Shop","score":2.0},{"name":"Starbucks","country":"USA","city":"New York","coordinates":{"type":"Point","coordinates":[-73.98894971,40.75799862]},"longitude":-73.98894971,"latitude":40.75799862,"category":"Coffee Shop","score":2.0},{"name":"Starbucks","country":"USA","city":"New York","coordinates":{"type":"Point","coordinates":[-73.9858496189,40.7566117775]},"longitude":-73.9858496189,"latitude":40.7566117775,"category":"Coffee Shop","score":1.0},{"name":"Starbucks","country":"USA","city":"New York","coordinates":{"type":"Point","coordinates":[-73.98258137,40.76399216]},"longitude":-73.98258137,"latitude":40.76399216,"category":"Coffee Shop","score":3.0},{"name":"Starbucks","country":"USA","city":"New York","coordinates":{"type":"Point","coordinates":[-73.9893780556,40.7569602921]},"longitude":-73.9893780556,"latitude":40.7569602921,"category":"Coffee Shop","score":2.0},{"name":"Starbucks","country":"USA","city":"New York","coordinates":{"type":"Point","coordinates":[-73.98531,40.76372]},"longitude":-73.98531,"latitude":40.76372,"category":"Coffee Shop","score":3.0},{"name":"Starbucks","country":"USA","city":"New York","coordinates":{"type":"Point","coordinates":[-73.9794198195,40.7581485248]},"longitude":-73.9794198195,"latitude":40.7581485248,"category":"Coffee Shop","score":3.0},{"name":"Starbucks","country":"USA","city":"New York","coordinates":{"type":"Point","coordinates":[-73.987015,40.751]},"longitude":-73.987015,"latitude":40.751,"category":"Coffee Shop","score":3.0},{"name":"Starbucks","country":"USA","city":"New York","coordinates":{"type":"Point","coordinates":[-73.98191645,40.76193824]},"longitude":-73.98191645,"latitude":40.76193824,"category":"Coffee Shop","score":3.0},{"name":"Starbucks","country":"USA","city":"New York","coordinates":{"type":"Point","coordinates":[-73.9787,40.761845]},"longitude":-73.9787,"latitude":40.761845,"category":"Coffee Shop","score":3.0},{"name":"Starbucks","country":"USA","city":"New York","coordinates":{"type":"Point","coordinates":[-73.9743968925,40.7566645111]},"longitude":-73.9743968925,"latitude":40.7566645111,"category":"Coffee Shop","score":3.0},{"name":"Starbucks","country":"USA","city":"New York","coordinates":{"type":"Point","coordinates":[-73.98815428,40.75052701]},"longitude":-73.98815428,"latitude":40.75052701,"category":"Coffee Shop","score":3.0},{"name":"Starbucks","country":"USA","city":"New York","coordinates":{"type":"Point","coordinates":[-73.98108,40.764385]},"longitude":-73.98108,"latitude":40.764385,"category":"Coffee Shop","score":3.0},{"name":"Starbucks","country":"USA","city":"New York","coordinates":{"type":"Point","coordinates":[-73.9858871698,40.7582493443]},"longitude":-73.9858871698,"latitude":40.7582493443,"category":"Coffee Shop","score":1.0},{"name":"Starbucks","country":"USA","city":"New York","coordinates":{"type":"Point","coordinates":[-73.97975945,40.75315692]},"longitude":-73.97975945,"latitude":40.75315692,"category":"Coffee Shop","score":3.0},{"name":"Starbucks","country":"USA","city":"New York","coordinates":{"type":"Point","coordinates":[-73.98251187,40.75779604]},"longitude":-73.98251187,"latitude":40.75779604,"category":"Coffee Shop","score":2.0},{"name":"Starbucks","country":"USA","city":"New York","coordinates":{"type":"Point","coordinates":[-73.981358929,40.7520899545]},"longitude":-73.981358929,"latitude":40.7520899545,"category":"Coffee Shop","score":3.0},{"name":"Starbucks","country":"USA","city":"New York","coordinates":{"type":"Point","coordinates":[-73.99196,40.757996]},"longitude":-73.99196,"latitude":40.757996,"category":"Coffee Shop","score":3.0},{"name":"Starbucks","country":"USA","city":"New York","coordinates":{"type":"Point","coordinates":[-73.98659719,40.76190095]},"longitude":-73.98659719,"latitude":40.76190095,"category":"Coffee Shop","score":2.0},{"name":"Starbucks","country":"USA","city":"New York","coordinates":{"type":"Point","coordinates":[-73.983826,40.749138]},"longitude":-73.983826,"latitude":40.749138,"category":"Coffee Shop","score":3.0},{"name":"LaGuardia Airport (LGA) (LaGuardia Airport)","country":"USA","city":"East Elmhurst","coordinates":{"type":"Point","coordinates":[-73.8688087463,40.77288813]},"longitude":-73.8688087463,"latitude":40.77288813,"category":"Airport","score":2.0},{"name":"Ritz Bar & Lounge","country":"USA","city":"New York","coordinates":{"type":"Point","coordinates":[-73.9903223305,40.7608440935]},"longitude":-73.9903223305,"latitude":40.7608440935,"category":"Bar","score":3.0},{"name":"Maoz","country":"USA","city":"New York","coordinates":{"type":"Point","coordinates":[-73.989116997,40.7581871474]},"longitude":-73.989116997,"latitude":40.7581871474,"category":"Vegan","score":2.0},{"name":"Vegetarian Oasis","country":"USA","city":"New York","coordinates":{"type":"Point","coordinates":[-73.9842511947,40.754572167]},"longitude":-73.9842511947,"latitude":40.754572167,"category":"Vegan","score":2.0},{"name":"Starbucks","country":"USA","city":"San Mateo","coordinates":{"type":"Point","coordinates":[-122.324005,37.56289]},"longitude":-122.324005,"latitude":37.56289,"category":"Coffee Shop","score":2.0},{"name":"Starbucks","country":"USA","city":"San Mateo","coordinates":{"type":"Point","coordinates":[-122.3138416,37.55226034]},"longitude":-122.3138416,"latitude":37.55226034,"category":"Coffee Shop","score":4.0},{"name":"Starbucks","country":"USA","city":"San Mateo","coordinates":{"type":"Point","coordinates":[-122.3333638737,37.5798265158]},"longitude":-122.3333638737,"latitude":37.5798265158,"category":"Coffee Shop","score":4.0},{"name":"San Francisco International Airport (SFO) (San Francisco International Airport)","country":"USA","city":"San Francisco","coordinates":{"type":"Point","coordinates":[-122.3870944977,37.6167130001]},"longitude":-122.3870944977,"latitude":37.6167130001,"category":"Airport","score":2.0},{"name":"San Carlos Airport (SQL) (San Carlos Airport)","country":"USA","city":"San Carlos","coordinates":{"type":"Point","coordinates":[-122.2512780923,37.5151071433]},"longitude":-122.2512780923,"latitude":37.5151071433,"category":"Airport","score":2.0},{"name":"North Shoreview Montessori","country":"USA","city":"San Mateo","coordinates":{"type":"Point","coordinates":[-122.3166825684,37.5748835977]},"longitude":-122.3166825684,"latitude":37.5748835977,"category":"School","score":3.0},{"name":"St. Matthew Catholic School","country":"USA","city":"San Mateo","coordinates":{"type":"Point","coordinates":[-122.3221364075,37.5579101647]},"longitude":-122.3221364075,"latitude":37.5579101647,"category":"School","score":2.0},{"name":"Petite Sorbonne Preschool","country":"USA","city":"San Mateo","coordinates":{"type":"Point","coordinates":[-122.329469574,37.5722549891]},"longitude":-122.329469574,"latitude":37.5722549891,"category":"School","score":2.0},{"name":"Highland Montessori","country":"USA","city":"San Mateo","coordinates":{"type":"Point","coordinates":[-122.336815,37.573558]},"longitude":-122.336815,"latitude":37.573558,"category":"School","score":3.0},{"name":"St. Petersburg - Clearwater International Airport (PIE)","country":"USA","city":"Clearwater","coordinates":{"type":"Point","coordinates":[-82.6913610675,27.9066422502]},"longitude":-82.6913610675,"latitude":27.9066422502,"category":"Airport","score":1.0},{"name":"High Point Elementary School","country":"USA","city":"Largo","coordinates":{"type":"Point","coordinates":[-82.7139303933,27.9090762803]},"longitude":-82.7139303933,"latitude":27.9090762803,"category":"School","score":3.0},{"name":"Stockholm-Bromma Airport (BMA) (Stockholm-Bromma Airport)","country":"SWE","city":"Bromma","coordinates":{"type":"Point","coordinates":[17.9454820536,59.3555317662]},"longitude":17.9454820536,"latitude":59.3555317662,"category":"Airport","score":2.0},{"name":"Annex Stockholm International School","country":"SWE","city":"Stockholm","coordinates":{"type":"Point","coordinates":[18.0626993625,59.3379987905]},"longitude":18.0626993625,"latitude":59.3379987905,"category":"School","score":3.0},{"name":"Stockholm-Bromma Airport (BMA) (Stockholm-Bromma Airport)","country":"SWE","city":"Bromma","coordinates":{"type":"Point","coordinates":[17.9454820536,59.3555317662]},"longitude":17.9454820536,"latitude":59.3555317662,"category":"Airport","score":2.0},{"name":"Annex Stockholm International School","country":"SWE","city":"Stockholm","coordinates":{"type":"Point","coordinates":[18.0626993625,59.3379987905]},"longitude":18.0626993625,"latitude":59.3379987905,"category":"School","score":3.0},{"name":"St. Petersburg - Clearwater International Airport (PIE)","country":"USA","city":"Clearwater","coordinates":{"type":"Point","coordinates":[-82.6913610675,27.9066422502]},"longitude":-82.6913610675,"latitude":27.9066422502,"category":"Airport","score":1.0},{"name":"High Point Elementary School","country":"USA","city":"Largo","coordinates":{"type":"Point","coordinates":[-82.7139303933,27.9090762803]},"longitude":-82.7139303933,"latitude":27.9090762803,"category":"School","score":3.0},{"name":"Starbucks","country":"USA","city":"New York","coordinates":{"type":"Point","coordinates":[-73.99035964,40.74900081]},"longitude":-73.99035964,"latitude":40.74900081,"category":"Coffee Shop","score":3.0},{"name":"Starbucks","country":"USA","city":"New York","coordinates":{"type":"Point","coordinates":[-73.98563,40.748234]},"longitude":-73.98563,"latitude":40.748234,"category":"Coffee Shop","score":2.0},{"name":"Starbucks","country":"USA","city":"New York","coordinates":{"type":"Point","coordinates":[-73.98815428,40.75052701]},"longitude":-73.98815428,"latitude":40.75052701,"category":"Coffee Shop","score":3.0},{"name":"Starbucks","country":"USA","city":"New York","coordinates":{"type":"Point","coordinates":[-73.983826,40.749138]},"longitude":-73.983826,"latitude":40.749138,"category":"Coffee Shop","score":3.0},{"name":"Starbucks","country":"USA","city":"New York","coordinates":{"type":"Point","coordinates":[-73.98686,40.745068]},"longitude":-73.98686,"latitude":40.745068,"category":"Coffee Shop","score":1.0},{"name":"Starbucks","country":"USA","city":"New York","coordinates":{"type":"Point","coordinates":[-73.987015,40.751]},"longitude":-73.987015,"latitude":40.751,"category":"Coffee Shop","score":3.0},{"name":"Starbucks","country":"USA","city":"New York","coordinates":{"type":"Point","coordinates":[-73.9824185607,40.7454707144]},"longitude":-73.9824185607,"latitude":40.7454707144,"category":"Coffee Shop","score":2.0},{"name":"Starbucks","country":"USA","city":"New York","coordinates":{"type":"Point","coordinates":[-73.991165,40.740383]},"longitude":-73.991165,"latitude":40.740383,"category":"Coffee Shop","score":3.0},{"name":"Starbucks","country":"USA","city":"New York","coordinates":{"type":"Point","coordinates":[-73.98373659,40.74405161]},"longitude":-73.98373659,"latitude":40.74405161,"category":"Coffee Shop","score":2.0},{"name":"Starbucks","country":"USA","city":"New York","coordinates":{"type":"Point","coordinates":[-73.99093502,40.75119363]},"longitude":-73.99093502,"latitude":40.75119363,"category":"Coffee Shop","score":3.0},{"name":"Starbucks","country":"USA","city":"New York","coordinates":{"type":"Point","coordinates":[-73.993324,40.746975]},"longitude":-73.993324,"latitude":40.746975,"category":"Coffee Shop","score":3.0},{"name":"Starbucks","country":"USA","city":"New York","coordinates":{"type":"Point","coordinates":[-73.981094,40.746723]},"longitude":-73.981094,"latitude":40.746723,"category":"Coffee Shop","score":3.0},{"name":"Starbucks","country":"USA","city":"New York","coordinates":{"type":"Point","coordinates":[-73.980774,40.74179]},"longitude":-73.980774,"latitude":40.74179,"category":"Coffee Shop","score":3.0},{"name":"Starbucks","country":"USA","city":"New York","coordinates":{"type":"Point","coordinates":[-73.99031,40.74166]},"longitude":-73.99031,"latitude":40.74166,"category":"Coffee Shop","score":2.0},{"name":"Starbucks","country":"USA","city":"New York","coordinates":{"type":"Point","coordinates":[-73.981358929,40.7520899545]},"longitude":-73.981358929,"latitude":40.7520899545,"category":"Coffee Shop","score":3.0},{"name":"Starbucks","country":"USA","city":"New York","coordinates":{"type":"Point","coordinates":[-73.99120667,40.73628194]},"longitude":-73.99120667,"latitude":40.73628194,"category":"Coffee Shop","score":3.0},{"name":"Starbucks","country":"USA","city":"New York","coordinates":{"type":"Point","coordinates":[-73.98835362,40.73790176]},"longitude":-73.98835362,"latitude":40.73790176,"category":"Coffee Shop","score":3.0},{"name":"Starbucks","country":"USA","city":"New York","coordinates":{"type":"Point","coordinates":[-73.995462178,40.744307413]},"longitude":-73.995462178,"latitude":40.744307413,"category":"Coffee Shop","score":3.0},{"name":"Starbucks","country":"USA","city":"New York","coordinates":{"type":"Point","coordinates":[-73.98229,40.748974]},"longitude":-73.98229,"latitude":40.748974,"category":"Coffee Shop","score":3.0},{"name":"Starbucks","country":"USA","city":"New York","coordinates":{"type":"Point","coordinates":[-73.98927764,40.74927198]},"longitude":-73.98927764,"latitude":40.74927198,"category":"Coffee Shop","score":3.0},{"name":"Starbucks","country":"USA","city":"New York","coordinates":{"type":"Point","coordinates":[-73.99231501,40.7489585]},"longitude":-73.99231501,"latitude":40.7489585,"category":"Coffee Shop","score":3.0},{"name":"Starbucks","country":"USA","city":"New York","coordinates":{"type":"Point","coordinates":[-73.988884,40.74383]},"longitude":-73.988884,"latitude":40.74383,"category":"Coffee Shop","score":1.0},{"name":"Starbucks","country":"USA","city":"New York","coordinates":{"type":"Point","coordinates":[-73.98697,40.74016]},"longitude":-73.98697,"latitude":40.74016,"category":"Coffee Shop","score":2.0},{"name":"Starbucks","country":"USA","city":"New York","coordinates":{"type":"Point","coordinates":[-73.9934509993,40.7509714126]},"longitude":-73.9934509993,"latitude":40.7509714126,"category":"Coffee Shop","score":3.0},{"name":"Starbucks","country":"USA","city":"New York","coordinates":{"type":"Point","coordinates":[-73.98433,40.74051]},"longitude":-73.98433,"latitude":40.74051,"category":"Coffee Shop","score":3.0},{"name":"Starbucks","country":"USA","city":"San Francisco","coordinates":{"type":"Point","coordinates":[-122.3967274809,37.7787041301]},"longitude":-122.3967274809,"latitude":37.7787041301,"category":"Coffee Shop","score":3.0},{"name":"Starbucks","country":"USA","city":"San Francisco","coordinates":{"type":"Point","coordinates":[-122.4020826091,37.7900699653]},"longitude":-122.4020826091,"latitude":37.7900699653,"category":"Coffee Shop","score":3.0},{"name":"Starbucks","country":"USA","city":"San Francisco","coordinates":{"type":"Point","coordinates":[-122.4040778421,37.7846048234]},"longitude":-122.4040778421,"latitude":37.7846048234,"category":"Coffee Shop","score":3.0},{"name":"Starbucks","country":"USA","city":"San Francisco","coordinates":{"type":"Point","coordinates":[-122.3945345509,37.7898189828]},"longitude":-122.3945345509,"latitude":37.7898189828,"category":"Coffee Shop","score":3.0},{"name":"Starbucks","country":"USA","city":"San Francisco","coordinates":{"type":"Point","coordinates":[-122.4007102485,37.7887916506]},"longitude":-122.4007102485,"latitude":37.7887916506,"category":"Coffee Shop","score":2.0},{"name":"Starbucks","country":"USA","city":"San Francisco","coordinates":{"type":"Point","coordinates":[-122.4009510945,37.7911044959]},"longitude":-122.4009510945,"latitude":37.7911044959,"category":"Coffee Shop","score":3.0},{"name":"Starbucks","country":"USA","city":"San Francisco","coordinates":{"type":"Point","coordinates":[-122.3975822,37.78946201]},"longitude":-122.3975822,"latitude":37.78946201,"category":"Coffee Shop","score":2.0},{"name":"Starbucks","country":"USA","city":"San Francisco","coordinates":{"type":"Point","coordinates":[-122.40318,37.78736]},"longitude":-122.40318,"latitude":37.78736,"category":"Coffee Shop","score":3.0},{"name":"Starbucks","country":"USA","city":"San Francisco","coordinates":{"type":"Point","coordinates":[-122.4056946,37.78615912]},"longitude":-122.4056946,"latitude":37.78615912,"category":"Coffee Shop","score":3.0},{"name":"Starbucks","country":"USA","city":"San Francisco","coordinates":{"type":"Point","coordinates":[-122.40682,37.78936]},"longitude":-122.40682,"latitude":37.78936,"category":"Coffee Shop","score":3.0},{"name":"Starbucks","country":"USA","city":"San Francisco","coordinates":{"type":"Point","coordinates":[-122.398364,37.791912]},"longitude":-122.398364,"latitude":37.791912,"category":"Coffee Shop","score":3.0},{"name":"Starbucks","country":"USA","city":"San Francisco","coordinates":{"type":"Point","coordinates":[-122.402032,37.789594]},"longitude":-122.402032,"latitude":37.789594,"category":"Coffee Shop","score":3.0},{"name":"Starbucks","country":"USA","city":"San Francisco","coordinates":{"type":"Point","coordinates":[-122.3941521,37.79367175]},"longitude":-122.3941521,"latitude":37.79367175,"category":"Coffee Shop","score":3.0},{"name":"Starbucks","country":"USA","city":"San Francisco","coordinates":{"type":"Point","coordinates":[-122.4057733,37.79042546]},"longitude":-122.4057733,"latitude":37.79042546,"category":"Coffee Shop","score":3.0},{"name":"Starbucks","country":"USA","city":"San Francisco","coordinates":{"type":"Point","coordinates":[-122.4040255818,37.7908174192]},"longitude":-122.4040255818,"latitude":37.7908174192,"category":"Coffee Shop","score":3.0},{"name":"Starbucks","country":"USA","city":"San Francisco","coordinates":{"type":"Point","coordinates":[-122.39235,37.79132]},"longitude":-122.39235,"latitude":37.79132,"category":"Coffee Shop","score":3.0},{"name":"Starbucks","country":"USA","city":"San Francisco","coordinates":{"type":"Point","coordinates":[-122.4011438698,37.7879020935]},"longitude":-122.4011438698,"latitude":37.7879020935,"category":"Coffee Shop","score":2.0},{"name":"Starbucks","country":"USA","city":"San Francisco","coordinates":{"type":"Point","coordinates":[-122.39976,37.79306]},"longitude":-122.39976,"latitude":37.79306,"category":"Coffee Shop","score":3.0},{"name":"Starbucks","country":"USA","city":"San Francisco","coordinates":{"type":"Point","coordinates":[-122.40354,37.79219]},"longitude":-122.40354,"latitude":37.79219,"category":"Coffee Shop","score":3.0},{"name":"Starbucks","country":"USA","city":"San Francisco","coordinates":{"type":"Point","coordinates":[-122.39738393,37.7934867757]},"longitude":-122.39738393,"latitude":37.7934867757,"category":"Coffee Shop","score":3.0},{"name":"Starbucks","country":"USA","city":"San Francisco","coordinates":{"type":"Point","coordinates":[-122.399973915,37.7847936773]},"longitude":-122.399973915,"latitude":37.7847936773,"category":"Coffee Shop","score":2.0},{"name":"Starbucks","country":"USA","city":"San Francisco","coordinates":{"type":"Point","coordinates":[-122.394516,37.791973]},"longitude":-122.394516,"latitude":37.791973,"category":"Coffee Shop","score":3.0},{"name":"Starbucks","country":"USA","city":"San Francisco","coordinates":{"type":"Point","coordinates":[-122.39721,37.793755]},"longitude":-122.39721,"latitude":37.793755,"category":"Coffee Shop","score":3.0},{"name":"Starbucks","country":"USA","city":"San Francisco","coordinates":{"type":"Point","coordinates":[-122.393659,37.77705718]},"longitude":-122.393659,"latitude":37.77705718,"category":"Coffee Shop","score":3.0},{"name":"Starbucks","country":"USA","city":"San Francisco","coordinates":{"type":"Point","coordinates":[-122.4039853612,37.7842313689]},"longitude":-122.4039853612,"latitude":37.7842313689,"category":"Coffee Shop","score":3.0},{"name":"Temple Nightclub","country":"USA","city":"San Francisco","coordinates":{"type":"Point","coordinates":[-122.3972270176,37.7878983547]},"longitude":-122.3972270176,"latitude":37.7878983547,"category":"Bar","score":2.0},{"name":"Starbucks","country":"GBR","city":"Greater London","coordinates":{"type":"Point","coordinates":[-0.103302,51.516572]},"longitude":-0.103302,"latitude":51.516572,"category":"Coffee Shop","score":2.0},{"name":"Starbucks","country":"GBR","city":"London","coordinates":{"type":"Point","coordinates":[-0.103538,51.520227]},"longitude":-0.103538,"latitude":51.520227,"category":"Coffee Shop","score":1.0},{"name":"Starbucks","country":"GBR","city":"London","coordinates":{"type":"Point","coordinates":[-0.098737,51.514608]},"longitude":-0.098737,"latitude":51.514608,"category":"Coffee Shop","score":3.0},{"name":"Starbucks","country":"GBR","city":"London","coordinates":{"type":"Point","coordinates":[-0.104046,51.512599]},"longitude":-0.104046,"latitude":51.512599,"category":"Coffee Shop","score":3.0},{"name":"Starbucks","country":"USA","city":"New York","coordinates":{"type":"Point","coordinates":[-73.99546,40.727192]},"longitude":-73.99546,"latitude":40.727192,"category":"Coffee Shop","score":1.0},{"name":"Starbucks","country":"USA","city":"New York","coordinates":{"type":"Point","coordinates":[-73.9914074396,40.7299079823]},"longitude":-73.9914074396,"latitude":40.7299079823,"category":"Coffee Shop","score":2.0},{"name":"Starbucks","country":"USA","city":"New York","coordinates":{"type":"Point","coordinates":[-74.0026079004,40.730647127]},"longitude":-74.0026079004,"latitude":40.730647127,"category":"Coffee Shop","score":3.0},{"name":"Starbucks","country":"USA","city":"New York","coordinates":{"type":"Point","coordinates":[-73.999677,40.733033]},"longitude":-73.999677,"latitude":40.733033,"category":"Coffee Shop","score":3.0},{"name":"Starbucks","country":"USA","city":"New York","coordinates":{"type":"Point","coordinates":[-74.00293,40.73318]},"longitude":-74.00293,"latitude":40.73318,"category":"Coffee Shop","score":3.0},{"name":"Starbucks","country":"USA","city":"New York","coordinates":{"type":"Point","coordinates":[-74.00026,40.72689]},"longitude":-74.00026,"latitude":40.72689,"category":"Coffee Shop","score":2.0},{"name":"Starbucks","country":"USA","city":"New York","coordinates":{"type":"Point","coordinates":[-73.9980228048,40.7225849537]},"longitude":-73.9980228048,"latitude":40.7225849537,"category":"Coffee Shop","score":3.0},{"name":"Starbucks","country":"USA","city":"New York","coordinates":{"type":"Point","coordinates":[-73.989845,40.735023]},"longitude":-73.989845,"latitude":40.735023,"category":"Coffee Shop","score":3.0},{"name":"Starbucks","country":"USA","city":"New York","coordinates":{"type":"Point","coordinates":[-73.98771484,40.72449233]},"longitude":-73.98771484,"latitude":40.72449233,"category":"Coffee Shop","score":3.0},{"name":"Starbucks","country":"USA","city":"New York","coordinates":{"type":"Point","coordinates":[-74.0056855884,40.7257200435]},"longitude":-74.0056855884,"latitude":40.7257200435,"category":"Coffee Shop","score":3.0},{"name":"Starbucks","country":"USA","city":"New York","coordinates":{"type":"Point","coordinates":[-73.99004522,40.71925187]},"longitude":-73.99004522,"latitude":40.71925187,"category":"Coffee Shop","score":3.0},{"name":"Starbucks","country":"USA","city":"New York","coordinates":{"type":"Point","coordinates":[-73.9992526383,40.7198331683]},"longitude":-73.9992526383,"latitude":40.7198331683,"category":"Coffee Shop","score":3.0},{"name":"Starbucks","country":"USA","city":"New York","coordinates":{"type":"Point","coordinates":[-73.996179,40.729655]},"longitude":-73.996179,"latitude":40.729655,"category":"Coffee Shop","score":2.0},{"name":"Momofuku Ss\u00e4m Bar","country":"USA","city":"New York","coordinates":{"type":"Point","coordinates":[-73.9855708613,40.7317112085]},"longitude":-73.9855708613,"latitude":40.7317112085,"category":"Bar","score":4.0},{"name":"Urban Vegan Kitchen","country":"USA","city":"New York","coordinates":{"type":"Point","coordinates":[-74.0035487152,40.7300187924]},"longitude":-74.0035487152,"latitude":40.7300187924,"category":"Vegan","score":3.0},{"name":"Starbucks","country":"USA","city":"New York","coordinates":{"type":"Point","coordinates":[-73.9824185607,40.7454707144]},"longitude":-73.9824185607,"latitude":40.7454707144,"category":"Coffee Shop","score":1.0},{"name":"Starbucks","country":"USA","city":"New York","coordinates":{"type":"Point","coordinates":[-73.99035964,40.74900081]},"longitude":-73.99035964,"latitude":40.74900081,"category":"Coffee Shop","score":3.0},{"name":"Starbucks","country":"USA","city":"New York","coordinates":{"type":"Point","coordinates":[-73.983826,40.749138]},"longitude":-73.983826,"latitude":40.749138,"category":"Coffee Shop","score":2.0},{"name":"Starbucks","country":"USA","city":"New York","coordinates":{"type":"Point","coordinates":[-73.98563,40.748234]},"longitude":-73.98563,"latitude":40.748234,"category":"Coffee Shop","score":2.0},{"name":"Starbucks","country":"USA","city":"New York","coordinates":{"type":"Point","coordinates":[-73.981094,40.746723]},"longitude":-73.981094,"latitude":40.746723,"category":"Coffee Shop","score":1.0},{"name":"Starbucks","country":"USA","city":"New York","coordinates":{"type":"Point","coordinates":[-73.987015,40.751]},"longitude":-73.987015,"latitude":40.751,"category":"Coffee Shop","score":3.0},{"name":"Starbucks","country":"USA","city":"New York","coordinates":{"type":"Point","coordinates":[-73.98815428,40.75052701]},"longitude":-73.98815428,"latitude":40.75052701,"category":"Coffee Shop","score":3.0},{"name":"Starbucks","country":"USA","city":"New York","coordinates":{"type":"Point","coordinates":[-73.98686,40.745068]},"longitude":-73.98686,"latitude":40.745068,"category":"Coffee Shop","score":2.0},{"name":"Starbucks","country":"USA","city":"New York","coordinates":{"type":"Point","coordinates":[-73.980774,40.74179]},"longitude":-73.980774,"latitude":40.74179,"category":"Coffee Shop","score":2.0},{"name":"Starbucks","country":"USA","city":"New York","coordinates":{"type":"Point","coordinates":[-73.98373659,40.74405161]},"longitude":-73.98373659,"latitude":40.74405161,"category":"Coffee Shop","score":1.0},{"name":"Starbucks","country":"USA","city":"New York","coordinates":{"type":"Point","coordinates":[-73.981358929,40.7520899545]},"longitude":-73.981358929,"latitude":40.7520899545,"category":"Coffee Shop","score":3.0},{"name":"Starbucks","country":"USA","city":"New York","coordinates":{"type":"Point","coordinates":[-73.98229,40.748974]},"longitude":-73.98229,"latitude":40.748974,"category":"Coffee Shop","score":2.0},{"name":"Starbucks","country":"USA","city":"New York","coordinates":{"type":"Point","coordinates":[-73.97975945,40.75315692]},"longitude":-73.97975945,"latitude":40.75315692,"category":"Coffee Shop","score":3.0},{"name":"Starbucks","country":"USA","city":"New York","coordinates":{"type":"Point","coordinates":[-73.9778033945,40.7518632977]},"longitude":-73.9778033945,"latitude":40.7518632977,"category":"Coffee Shop","score":3.0},{"name":"Starbucks","country":"USA","city":"New York","coordinates":{"type":"Point","coordinates":[-73.991165,40.740383]},"longitude":-73.991165,"latitude":40.740383,"category":"Coffee Shop","score":3.0},{"name":"Starbucks","country":"USA","city":"New York","coordinates":{"type":"Point","coordinates":[-73.97704,40.75033]},"longitude":-73.97704,"latitude":40.75033,"category":"Coffee Shop","score":3.0},{"name":"Starbucks","country":"USA","city":"New York","coordinates":{"type":"Point","coordinates":[-73.99093502,40.75119363]},"longitude":-73.99093502,"latitude":40.75119363,"category":"Coffee Shop","score":3.0},{"name":"Starbucks","country":"USA","city":"New York","coordinates":{"type":"Point","coordinates":[-73.97362889,40.7515383]},"longitude":-73.97362889,"latitude":40.7515383,"category":"Coffee Shop","score":3.0},{"name":"Starbucks","country":"USA","city":"New York","coordinates":{"type":"Point","coordinates":[-73.9727522307,40.7499988082]},"longitude":-73.9727522307,"latitude":40.7499988082,"category":"Coffee Shop","score":3.0},{"name":"Starbucks","country":"USA","city":"New York","coordinates":{"type":"Point","coordinates":[-73.97917487,40.75041692]},"longitude":-73.97917487,"latitude":40.75041692,"category":"Coffee Shop","score":3.0},{"name":"Starbucks","country":"USA","city":"New York","coordinates":{"type":"Point","coordinates":[-73.993324,40.746975]},"longitude":-73.993324,"latitude":40.746975,"category":"Coffee Shop","score":3.0},{"name":"Starbucks","country":"USA","city":"New York","coordinates":{"type":"Point","coordinates":[-73.98835362,40.73790176]},"longitude":-73.98835362,"latitude":40.73790176,"category":"Coffee Shop","score":3.0},{"name":"Starbucks","country":"USA","city":"New York","coordinates":{"type":"Point","coordinates":[-73.98927764,40.74927198]},"longitude":-73.98927764,"latitude":40.74927198,"category":"Coffee Shop","score":3.0},{"name":"Starbucks","country":"USA","city":"New York","coordinates":{"type":"Point","coordinates":[-73.98433,40.74051]},"longitude":-73.98433,"latitude":40.74051,"category":"Coffee Shop","score":3.0},{"name":"Starbucks","country":"USA","city":"New York","coordinates":{"type":"Point","coordinates":[-73.97696425,40.74365595]},"longitude":-73.97696425,"latitude":40.74365595,"category":"Coffee Shop","score":2.0},{"name":"Starbucks","country":"GBR","city":"London","coordinates":{"type":"Point","coordinates":[-0.0868732798,51.5047960762]},"longitude":-0.0868732798,"latitude":51.5047960762,"category":"Coffee Shop","score":3.0},{"name":"Starbucks","country":"GBR","city":"London","coordinates":{"type":"Point","coordinates":[-0.088153,51.512707]},"longitude":-0.088153,"latitude":51.512707,"category":"Coffee Shop","score":2.0},{"name":"Starbucks","country":"GBR","city":"London","coordinates":{"type":"Point","coordinates":[-0.100019,51.506522]},"longitude":-0.100019,"latitude":51.506522,"category":"Coffee Shop","score":3.0},{"name":"Starbucks","country":"GBR","city":"London","coordinates":{"type":"Point","coordinates":[-0.090088,51.512619]},"longitude":-0.090088,"latitude":51.512619,"category":"Coffee Shop","score":2.0},{"name":"Starbucks","country":"GBR","city":"London","coordinates":{"type":"Point","coordinates":[-0.098737,51.514608]},"longitude":-0.098737,"latitude":51.514608,"category":"Coffee Shop","score":2.0},{"name":"Starbucks","country":"GBR","city":"South Bank","coordinates":{"type":"Point","coordinates":[-0.096244,51.507986]},"longitude":-0.096244,"latitude":51.507986,"category":"Coffee Shop","score":2.0},{"name":"Starbucks","country":"GBR","city":"London","coordinates":{"type":"Point","coordinates":[-0.101929,51.508201]},"longitude":-0.101929,"latitude":51.508201,"category":"Coffee Shop","score":3.0},{"name":"Starbucks","country":"GBR","city":"Greater London","coordinates":{"type":"Point","coordinates":[-0.103302,51.516572]},"longitude":-0.103302,"latitude":51.516572,"category":"Coffee Shop","score":3.0},{"name":"Starbucks","country":"GBR","city":"London","coordinates":{"type":"Point","coordinates":[-0.104046,51.512599]},"longitude":-0.104046,"latitude":51.512599,"category":"Coffee Shop","score":3.0},{"name":"London City Airport (LCY) (London City Airport)","country":"GBR","city":"London","coordinates":{"type":"Point","coordinates":[0.049678687,51.5039795408]},"longitude":0.049678687,"latitude":51.5039795408,"category":"Airport","score":2.0},{"name":"Starbucks","country":"USA","city":"New York","coordinates":{"type":"Point","coordinates":[-74.0113,40.705162]},"longitude":-74.0113,"latitude":40.705162,"category":"Coffee Shop","score":2.0},{"name":"Starbucks","country":"USA","city":"New York","coordinates":{"type":"Point","coordinates":[-74.013016,40.70435]},"longitude":-74.013016,"latitude":40.70435,"category":"Coffee Shop","score":2.0},{"name":"Starbucks","country":"USA","city":"New York","coordinates":{"type":"Point","coordinates":[-74.008755824,40.7060815306]},"longitude":-74.008755824,"latitude":40.7060815306,"category":"Coffee Shop","score":2.0},{"name":"Starbucks","country":"USA","city":"New York","coordinates":{"type":"Point","coordinates":[-74.00805192,40.71220388]},"longitude":-74.00805192,"latitude":40.71220388,"category":"Coffee Shop","score":3.0},{"name":"Starbucks","country":"USA","city":"New York","coordinates":{"type":"Point","coordinates":[-74.01428898,40.70323823]},"longitude":-74.01428898,"latitude":40.70323823,"category":"Coffee Shop","score":3.0},{"name":"Starbucks","country":"USA","city":"New York","coordinates":{"type":"Point","coordinates":[-74.010284,40.710922]},"longitude":-74.010284,"latitude":40.710922,"category":"Coffee Shop","score":2.0},{"name":"Starbucks","country":"USA","city":"New York","coordinates":{"type":"Point","coordinates":[-74.011116,40.70873]},"longitude":-74.011116,"latitude":40.70873,"category":"Coffee Shop","score":2.0},{"name":"Starbucks","country":"USA","city":"New York","coordinates":{"type":"Point","coordinates":[-74.00706045,40.70480591]},"longitude":-74.00706045,"latitude":40.70480591,"category":"Coffee Shop","score":3.0},{"name":"Starbucks","country":"USA","city":"New York","coordinates":{"type":"Point","coordinates":[-74.00951,40.70874]},"longitude":-74.00951,"latitude":40.70874,"category":"Coffee Shop","score":2.0},{"name":"Starbucks","country":"USA","city":"New York","coordinates":{"type":"Point","coordinates":[-74.0090257274,40.7138385165]},"longitude":-74.0090257274,"latitude":40.7138385165,"category":"Coffee Shop","score":3.0},{"name":"Starbucks","country":"USA","city":"New York","coordinates":{"type":"Point","coordinates":[-74.01127283,40.70755596]},"longitude":-74.01127283,"latitude":40.70755596,"category":"Coffee Shop","score":2.0},{"name":"Starbucks","country":"USA","city":"New York","coordinates":{"type":"Point","coordinates":[-74.00672626,40.71159756]},"longitude":-74.00672626,"latitude":40.71159756,"category":"Coffee Shop","score":3.0},{"name":"Starbucks","country":"USA","city":"New York","coordinates":{"type":"Point","coordinates":[-74.01045367,40.70955912]},"longitude":-74.01045367,"latitude":40.70955912,"category":"Coffee Shop","score":2.0},{"name":"Starbucks","country":"USA","city":"New York","coordinates":{"type":"Point","coordinates":[-74.0074,40.708412]},"longitude":-74.0074,"latitude":40.708412,"category":"Coffee Shop","score":3.0},{"name":"Starbucks","country":"USA","city":"New York","coordinates":{"type":"Point","coordinates":[-74.0047961035,40.7111417092]},"longitude":-74.0047961035,"latitude":40.7111417092,"category":"Coffee Shop","score":3.0},{"name":"Starbucks","country":"USA","city":"New York","coordinates":{"type":"Point","coordinates":[-74.0080802,40.71027979]},"longitude":-74.0080802,"latitude":40.71027979,"category":"Coffee Shop","score":3.0},{"name":"Starbucks","country":"USA","city":"New York","coordinates":{"type":"Point","coordinates":[-74.00918,40.704548]},"longitude":-74.00918,"latitude":40.704548,"category":"Coffee Shop","score":3.0},{"name":"Starbucks","country":"USA","city":"New York","coordinates":{"type":"Point","coordinates":[-74.006584,40.706318]},"longitude":-74.006584,"latitude":40.706318,"category":"Coffee Shop","score":3.0},{"name":"Starbucks","country":"USA","city":"New York","coordinates":{"type":"Point","coordinates":[-74.00494971,40.70703711]},"longitude":-74.00494971,"latitude":40.70703711,"category":"Coffee Shop","score":3.0},{"name":"Starbucks","country":"USA","city":"New York","coordinates":{"type":"Point","coordinates":[-74.00903,40.715534]},"longitude":-74.00903,"latitude":40.715534,"category":"Coffee Shop","score":3.0},{"name":"Starbucks","country":"USA","city":"New York","coordinates":{"type":"Point","coordinates":[-74.0141356569,40.7092232575]},"longitude":-74.0141356569,"latitude":40.7092232575,"category":"Coffee Shop","score":1.0},{"name":"Starbucks","country":"USA","city":"New York","coordinates":{"type":"Point","coordinates":[-74.01545811,40.71102554]},"longitude":-74.01545811,"latitude":40.71102554,"category":"Coffee Shop","score":2.0},{"name":"Starbucks","country":"USA","city":"New York","coordinates":{"type":"Point","coordinates":[-74.0085797483,40.7106426912]},"longitude":-74.0085797483,"latitude":40.7106426912,"category":"Coffee Shop","score":3.0},{"name":"Starbucks","country":"USA","city":"New York","coordinates":{"type":"Point","coordinates":[-74.0128,40.702785]},"longitude":-74.0128,"latitude":40.702785,"category":"Coffee Shop","score":3.0},{"name":"Stuyvesant High School","country":"USA","city":"New York","coordinates":{"type":"Point","coordinates":[-74.013202812,40.7176088795]},"longitude":-74.013202812,"latitude":40.7176088795,"category":"School","score":3.0},{"name":"Trinity Preschool","country":"USA","city":"New York","coordinates":{"type":"Point","coordinates":[-74.0119576096,40.7082594814]},"longitude":-74.0119576096,"latitude":40.7082594814,"category":"School","score":1.0},{"name":"Starbucks","country":"USA","city":"New York","coordinates":{"type":"Point","coordinates":[-73.99120667,40.73628194]},"longitude":-73.99120667,"latitude":40.73628194,"category":"Coffee Shop","score":2.0},{"name":"Starbucks","country":"USA","city":"New York","coordinates":{"type":"Point","coordinates":[-73.989845,40.735023]},"longitude":-73.989845,"latitude":40.735023,"category":"Coffee Shop","score":2.0},{"name":"Starbucks","country":"USA","city":"New York","coordinates":{"type":"Point","coordinates":[-73.991165,40.740383]},"longitude":-73.991165,"latitude":40.740383,"category":"Coffee Shop","score":3.0},{"name":"Starbucks","country":"USA","city":"New York","coordinates":{"type":"Point","coordinates":[-73.98835362,40.73790176]},"longitude":-73.98835362,"latitude":40.73790176,"category":"Coffee Shop","score":3.0},{"name":"Starbucks","country":"USA","city":"New York","coordinates":{"type":"Point","coordinates":[-73.9964,40.73698]},"longitude":-73.9964,"latitude":40.73698,"category":"Coffee Shop","score":3.0},{"name":"Starbucks","country":"USA","city":"New York","coordinates":{"type":"Point","coordinates":[-73.999567,40.739218]},"longitude":-73.999567,"latitude":40.739218,"category":"Coffee Shop","score":3.0},{"name":"Starbucks","country":"USA","city":"New York","coordinates":{"type":"Point","coordinates":[-73.9914074396,40.7299079823]},"longitude":-73.9914074396,"latitude":40.7299079823,"category":"Coffee Shop","score":2.0},{"name":"Starbucks","country":"USA","city":"New York","coordinates":{"type":"Point","coordinates":[-73.999677,40.733033]},"longitude":-73.999677,"latitude":40.733033,"category":"Coffee Shop","score":3.0},{"name":"Starbucks","country":"USA","city":"New York","coordinates":{"type":"Point","coordinates":[-73.986595,40.73375]},"longitude":-73.986595,"latitude":40.73375,"category":"Coffee Shop","score":2.0},{"name":"Starbucks","country":"USA","city":"New York","coordinates":{"type":"Point","coordinates":[-73.99546,40.727192]},"longitude":-73.99546,"latitude":40.727192,"category":"Coffee Shop","score":3.0},{"name":"Starbucks","country":"USA","city":"New York","coordinates":{"type":"Point","coordinates":[-73.99031,40.74166]},"longitude":-73.99031,"latitude":40.74166,"category":"Coffee Shop","score":3.0},{"name":"Starbucks","country":"USA","city":"New York","coordinates":{"type":"Point","coordinates":[-73.98697,40.74016]},"longitude":-73.98697,"latitude":40.74016,"category":"Coffee Shop","score":3.0},{"name":"Starbucks","country":"USA","city":"New York","coordinates":{"type":"Point","coordinates":[-73.9832,40.7309]},"longitude":-73.9832,"latitude":40.7309,"category":"Coffee Shop","score":3.0},{"name":"Starbucks","country":"USA","city":"New York","coordinates":{"type":"Point","coordinates":[-73.98082,40.73323]},"longitude":-73.98082,"latitude":40.73323,"category":"Coffee Shop","score":3.0},{"name":"Starbucks","country":"USA","city":"New York","coordinates":{"type":"Point","coordinates":[-73.9834,40.738792]},"longitude":-73.9834,"latitude":40.738792,"category":"Coffee Shop","score":3.0},{"name":"Starbucks","country":"USA","city":"New York","coordinates":{"type":"Point","coordinates":[-73.98433,40.74051]},"longitude":-73.98433,"latitude":40.74051,"category":"Coffee Shop","score":3.0},{"name":"Starbucks","country":"USA","city":"New York","coordinates":{"type":"Point","coordinates":[-73.99324,40.741844]},"longitude":-73.99324,"latitude":40.741844,"category":"Coffee Shop","score":3.0},{"name":"Starbucks","country":"USA","city":"New York","coordinates":{"type":"Point","coordinates":[-73.996179,40.729655]},"longitude":-73.996179,"latitude":40.729655,"category":"Coffee Shop","score":3.0},{"name":"Preschool of America","country":"USA","city":"New York","coordinates":{"type":"Point","coordinates":[-73.9953413079,40.739357915]},"longitude":-73.9953413079,"latitude":40.739357915,"category":"School","score":2.0},{"name":"Greenwich Village School","country":"USA","city":"New York","coordinates":{"type":"Point","coordinates":[-73.9994133208,40.7357224485]},"longitude":-73.9994133208,"latitude":40.7357224485,"category":"School","score":2.0},{"name":"Momofuku Ss\u00e4m Bar","country":"USA","city":"New York","coordinates":{"type":"Point","coordinates":[-73.9855708613,40.7317112085]},"longitude":-73.9855708613,"latitude":40.7317112085,"category":"Bar","score":3.0},{"name":"Starbucks","country":"USA","city":"Santa Monica","coordinates":{"type":"Point","coordinates":[-118.49153418,34.010796383]},"longitude":-118.49153418,"latitude":34.010796383,"category":"Coffee Shop","score":2.0},{"name":"Starbucks","country":"USA","city":"Santa Monica","coordinates":{"type":"Point","coordinates":[-118.493195,34.013973]},"longitude":-118.493195,"latitude":34.013973,"category":"Coffee Shop","score":3.0},{"name":"Starbucks","country":"USA","city":"Santa Monica","coordinates":{"type":"Point","coordinates":[-118.4825640252,34.0011190655]},"longitude":-118.4825640252,"latitude":34.0011190655,"category":"Coffee Shop","score":3.0},{"name":"Starbucks","country":"USA","city":"Santa Monica","coordinates":{"type":"Point","coordinates":[-118.4830524496,34.0120661618]},"longitude":-118.4830524496,"latitude":34.0120661618,"category":"Coffee Shop","score":3.0},{"name":"Santa Monica High School","country":"USA","city":"Santa Monica","coordinates":{"type":"Point","coordinates":[-118.4871062448,34.011716219]},"longitude":-118.4871062448,"latitude":34.011716219,"category":"School","score":2.0},{"name":"Cast Lounge at Viceroy Santa Monica","country":"USA","city":"Santa Monica","coordinates":{"type":"Point","coordinates":[-118.4905242946,34.0080885631]},"longitude":-118.4905242946,"latitude":34.0080885631,"category":"Bar","score":1.0},{"name":"Elovate Vegan Kitchen","country":"USA","city":"Santa Monica","coordinates":{"type":"Point","coordinates":[-118.4914694,34.0106691]},"longitude":-118.4914694,"latitude":34.0106691,"category":"Vegan","score":2.0},{"name":"Starbucks","country":"USA","city":"San Francisco","coordinates":{"type":"Point","coordinates":[-122.4172976,37.77708998]},"longitude":-122.4172976,"latitude":37.77708998,"category":"Coffee Shop","score":2.0},{"name":"Starbucks","country":"USA","city":"San Francisco","coordinates":{"type":"Point","coordinates":[-122.40906,37.78617]},"longitude":-122.40906,"latitude":37.78617,"category":"Coffee Shop","score":4.0},{"name":"Starbucks","country":"USA","city":"San Francisco","coordinates":{"type":"Point","coordinates":[-122.4084517461,37.7891481546]},"longitude":-122.4084517461,"latitude":37.7891481546,"category":"Coffee Shop","score":4.0},{"name":"Starbucks","country":"USA","city":"San Francisco","coordinates":{"type":"Point","coordinates":[-122.4056946,37.78615912]},"longitude":-122.4056946,"latitude":37.78615912,"category":"Coffee Shop","score":4.0},{"name":"Starbucks","country":"USA","city":"San Francisco","coordinates":{"type":"Point","coordinates":[-122.422066,37.790268]},"longitude":-122.422066,"latitude":37.790268,"category":"Coffee Shop","score":4.0},{"name":"Starbucks","country":"USA","city":"San Francisco","coordinates":{"type":"Point","coordinates":[-122.4034495,37.7658775]},"longitude":-122.4034495,"latitude":37.7658775,"category":"Coffee Shop","score":4.0},{"name":"Starbucks","country":"USA","city":"San Francisco","coordinates":{"type":"Point","coordinates":[-122.40318,37.78736]},"longitude":-122.40318,"latitude":37.78736,"category":"Coffee Shop","score":4.0},{"name":"Starbucks","country":"USA","city":"San Francisco","coordinates":{"type":"Point","coordinates":[-122.428353,37.769122]},"longitude":-122.428353,"latitude":37.769122,"category":"Coffee Shop","score":4.0},{"name":"Starbucks","country":"USA","city":"San Francisco","coordinates":{"type":"Point","coordinates":[-122.431519,37.782738]},"longitude":-122.431519,"latitude":37.782738,"category":"Coffee Shop","score":4.0},{"name":"Starbucks","country":"USA","city":"San Francisco","coordinates":{"type":"Point","coordinates":[-122.403465,37.77019]},"longitude":-122.403465,"latitude":37.77019,"category":"Coffee Shop","score":4.0},{"name":"Starbucks","country":"USA","city":"San Francisco","coordinates":{"type":"Point","coordinates":[-122.410435,37.76288]},"longitude":-122.410435,"latitude":37.76288,"category":"Coffee Shop","score":4.0},{"name":"Mission Montessori","country":"USA","city":"San Francisco","coordinates":{"type":"Point","coordinates":[-122.418816,37.776597]},"longitude":-122.418816,"latitude":37.776597,"category":"School","score":1.0},{"name":"AltSchool","country":"USA","city":"San Francisco","coordinates":{"type":"Point","coordinates":[-122.4105158079,37.7742755382]},"longitude":-122.4105158079,"latitude":37.7742755382,"category":"School","score":2.0},{"name":"Absinthe Brasserie & Bar","country":"USA","city":"San Francisco","coordinates":{"type":"Point","coordinates":[-122.4230037163,37.7770088435]},"longitude":-122.4230037163,"latitude":37.7770088435,"category":"Bar","score":3.0},{"name":"DNA Lounge","country":"USA","city":"San Francisco","coordinates":{"type":"Point","coordinates":[-122.4126888331,37.7709562846]},"longitude":-122.4126888331,"latitude":37.7709562846,"category":"Bar","score":4.0},{"name":"Audio Nightclub","country":"USA","city":"San Francisco","coordinates":{"type":"Point","coordinates":[-122.4138318676,37.771378317]},"longitude":-122.4138318676,"latitude":37.771378317,"category":"Bar","score":4.0},{"name":"Golden Era Vegan","country":"USA","city":"San Francisco","coordinates":{"type":"Point","coordinates":[-122.4168223165,37.7814947391]},"longitude":-122.4168223165,"latitude":37.7814947391,"category":"Vegan","score":3.0},{"name":"Starbucks","country":"USA","city":"New York","coordinates":{"type":"Point","coordinates":[-74.0113,40.705162]},"longitude":-74.0113,"latitude":40.705162,"category":"Coffee Shop","score":2.0},{"name":"Starbucks","country":"USA","city":"New York","coordinates":{"type":"Point","coordinates":[-74.008755824,40.7060815306]},"longitude":-74.008755824,"latitude":40.7060815306,"category":"Coffee Shop","score":2.0},{"name":"Starbucks","country":"USA","city":"New York","coordinates":{"type":"Point","coordinates":[-74.013016,40.70435]},"longitude":-74.013016,"latitude":40.70435,"category":"Coffee Shop","score":2.0},{"name":"Starbucks","country":"USA","city":"New York","coordinates":{"type":"Point","coordinates":[-74.00805192,40.71220388]},"longitude":-74.00805192,"latitude":40.71220388,"category":"Coffee Shop","score":3.0},{"name":"Starbucks","country":"USA","city":"New York","coordinates":{"type":"Point","coordinates":[-74.010284,40.710922]},"longitude":-74.010284,"latitude":40.710922,"category":"Coffee Shop","score":2.0},{"name":"Starbucks","country":"USA","city":"New York","coordinates":{"type":"Point","coordinates":[-74.01428898,40.70323823]},"longitude":-74.01428898,"latitude":40.70323823,"category":"Coffee Shop","score":3.0},{"name":"Starbucks","country":"USA","city":"New York","coordinates":{"type":"Point","coordinates":[-74.00706045,40.70480591]},"longitude":-74.00706045,"latitude":40.70480591,"category":"Coffee Shop","score":2.0},{"name":"Starbucks","country":"USA","city":"New York","coordinates":{"type":"Point","coordinates":[-74.011116,40.70873]},"longitude":-74.011116,"latitude":40.70873,"category":"Coffee Shop","score":1.0},{"name":"Starbucks","country":"USA","city":"New York","coordinates":{"type":"Point","coordinates":[-74.00951,40.70874]},"longitude":-74.00951,"latitude":40.70874,"category":"Coffee Shop","score":1.0},{"name":"Starbucks","country":"USA","city":"New York","coordinates":{"type":"Point","coordinates":[-74.0090257274,40.7138385165]},"longitude":-74.0090257274,"latitude":40.7138385165,"category":"Coffee Shop","score":3.0},{"name":"Starbucks","country":"USA","city":"New York","coordinates":{"type":"Point","coordinates":[-74.00672626,40.71159756]},"longitude":-74.00672626,"latitude":40.71159756,"category":"Coffee Shop","score":3.0},{"name":"Starbucks","country":"USA","city":"New York","coordinates":{"type":"Point","coordinates":[-74.01127283,40.70755596]},"longitude":-74.01127283,"latitude":40.70755596,"category":"Coffee Shop","score":1.0},{"name":"Starbucks","country":"USA","city":"New York","coordinates":{"type":"Point","coordinates":[-74.0074,40.708412]},"longitude":-74.0074,"latitude":40.708412,"category":"Coffee Shop","score":2.0},{"name":"Starbucks","country":"USA","city":"New York","coordinates":{"type":"Point","coordinates":[-74.0047961035,40.7111417092]},"longitude":-74.0047961035,"latitude":40.7111417092,"category":"Coffee Shop","score":3.0},{"name":"Starbucks","country":"USA","city":"New York","coordinates":{"type":"Point","coordinates":[-74.01045367,40.70955912]},"longitude":-74.01045367,"latitude":40.70955912,"category":"Coffee Shop","score":1.0},{"name":"Starbucks","country":"USA","city":"New York","coordinates":{"type":"Point","coordinates":[-74.0080802,40.71027979]},"longitude":-74.0080802,"latitude":40.71027979,"category":"Coffee Shop","score":2.0},{"name":"Starbucks","country":"USA","city":"New York","coordinates":{"type":"Point","coordinates":[-74.006584,40.706318]},"longitude":-74.006584,"latitude":40.706318,"category":"Coffee Shop","score":2.0},{"name":"Starbucks","country":"USA","city":"New York","coordinates":{"type":"Point","coordinates":[-74.00494971,40.70703711]},"longitude":-74.00494971,"latitude":40.70703711,"category":"Coffee Shop","score":3.0},{"name":"Starbucks","country":"USA","city":"New York","coordinates":{"type":"Point","coordinates":[-74.00918,40.704548]},"longitude":-74.00918,"latitude":40.704548,"category":"Coffee Shop","score":2.0},{"name":"Starbucks","country":"USA","city":"New York","coordinates":{"type":"Point","coordinates":[-74.005936,40.714855]},"longitude":-74.005936,"latitude":40.714855,"category":"Coffee Shop","score":3.0},{"name":"Starbucks","country":"USA","city":"New York","coordinates":{"type":"Point","coordinates":[-74.00903,40.715534]},"longitude":-74.00903,"latitude":40.715534,"category":"Coffee Shop","score":3.0},{"name":"Starbucks","country":"USA","city":"New York","coordinates":{"type":"Point","coordinates":[-74.0141356569,40.7092232575]},"longitude":-74.0141356569,"latitude":40.7092232575,"category":"Coffee Shop","score":2.0},{"name":"Starbucks","country":"USA","city":"New York","coordinates":{"type":"Point","coordinates":[-74.0085797483,40.7106426912]},"longitude":-74.0085797483,"latitude":40.7106426912,"category":"Coffee Shop","score":2.0},{"name":"Starbucks","country":"USA","city":"New York","coordinates":{"type":"Point","coordinates":[-74.01545811,40.71102554]},"longitude":-74.01545811,"latitude":40.71102554,"category":"Coffee Shop","score":3.0},{"name":"Stuyvesant High School","country":"USA","city":"New York","coordinates":{"type":"Point","coordinates":[-74.013202812,40.7176088795]},"longitude":-74.013202812,"latitude":40.7176088795,"category":"School","score":3.0},{"name":"Trinity Preschool","country":"USA","city":"New York","coordinates":{"type":"Point","coordinates":[-74.0119576096,40.7082594814]},"longitude":-74.0119576096,"latitude":40.7082594814,"category":"School","score":1.0},{"name":"Starbucks","country":"USA","city":"Santa Monica","coordinates":{"type":"Point","coordinates":[-118.49153418,34.010796383]},"longitude":-118.49153418,"latitude":34.010796383,"category":"Coffee Shop","score":2.0},{"name":"Starbucks","country":"USA","city":"Santa Monica","coordinates":{"type":"Point","coordinates":[-118.493195,34.013973]},"longitude":-118.493195,"latitude":34.013973,"category":"Coffee Shop","score":3.0},{"name":"Starbucks","country":"USA","city":"Santa Monica","coordinates":{"type":"Point","coordinates":[-118.4830524496,34.0120661618]},"longitude":-118.4830524496,"latitude":34.0120661618,"category":"Coffee Shop","score":3.0},{"name":"Santa Monica High School","country":"USA","city":"Santa Monica","coordinates":{"type":"Point","coordinates":[-118.4871062448,34.011716219]},"longitude":-118.4871062448,"latitude":34.011716219,"category":"School","score":1.0},{"name":"Step by Step Early Childhood","country":"USA","city":"Santa Monica","coordinates":{"type":"Point","coordinates":[-118.478965,34.017876]},"longitude":-118.478965,"latitude":34.017876,"category":"School","score":3.0},{"name":"Cast Lounge at Viceroy Santa Monica","country":"USA","city":"Santa Monica","coordinates":{"type":"Point","coordinates":[-118.4905242946,34.0080885631]},"longitude":-118.4905242946,"latitude":34.0080885631,"category":"Bar","score":1.0},{"name":"Elovate Vegan Kitchen","country":"USA","city":"Santa Monica","coordinates":{"type":"Point","coordinates":[-118.4914694,34.0106691]},"longitude":-118.4914694,"latitude":34.0106691,"category":"Vegan","score":2.0},{"name":"Starbucks","country":"NLD","city":"Amsterdam","coordinates":{"type":"Point","coordinates":[4.8974308039,52.3660767847]},"longitude":4.8974308039,"latitude":52.3660767847,"category":"Coffee Shop","score":2.0},{"name":"Starbucks","country":"NLD","city":"Amsterdam","coordinates":{"type":"Point","coordinates":[4.8896454089,52.3671874059]},"longitude":4.8896454089,"latitude":52.3671874059,"category":"Coffee Shop","score":2.0},{"name":"Starbucks","country":"NLD","city":"Amsterdam","coordinates":{"type":"Point","coordinates":[4.8835384561,52.3645789092]},"longitude":4.8835384561,"latitude":52.3645789092,"category":"Coffee Shop","score":3.0},{"name":"Platform Schiphol-Oost","country":"NLD","city":"Schiphol","coordinates":{"type":"Point","coordinates":[4.805051544,52.3131967679]},"longitude":4.805051544,"latitude":52.3131967679,"category":"Airport","score":2.0},{"name":"Goethe Instituut","country":"NLD","city":"Amsterdam","coordinates":{"type":"Point","coordinates":[4.891138931,52.365238158]},"longitude":4.891138931,"latitude":52.365238158,"category":"School","score":1.0},{"name":"De School Van Mieke Petiet","country":"NLD","city":"Amsterdam","coordinates":{"type":"Point","coordinates":[4.8839208969,52.365848679]},"longitude":4.8839208969,"latitude":52.365848679,"category":"School","score":2.0},{"name":"Altra College","country":"NLD","city":"Amsterdam","coordinates":{"type":"Point","coordinates":[4.8886156082,52.35854029]},"longitude":4.8886156082,"latitude":52.35854029,"category":"School","score":2.0},{"name":"Cue Bar","country":"NLD","city":"Amsterdam","coordinates":{"type":"Point","coordinates":[4.8976121831,52.3654871781]},"longitude":4.8976121831,"latitude":52.3654871781,"category":"Bar","score":3.0},{"name":"Vegan Junk Food Bar","country":"NLD","city":"Amsterdam","coordinates":{"type":"Point","coordinates":[4.8915628145,52.3663911764]},"longitude":4.8915628145,"latitude":52.3663911764,"category":"Vegan","score":1.0},{"name":"Vegan Junk Food Bar","country":"NLD","city":"Amsterdam","coordinates":{"type":"Point","coordinates":[4.8911839547,52.3571068804]},"longitude":4.8911839547,"latitude":52.3571068804,"category":"Vegan","score":3.0},{"name":"Starbucks","country":"USA","city":"New York","coordinates":{"type":"Point","coordinates":[-74.00172,40.73725]},"longitude":-74.00172,"latitude":40.73725,"category":"Coffee Shop","score":3.0},{"name":"Starbucks","country":"USA","city":"New York","coordinates":{"type":"Point","coordinates":[-74.00034,40.743]},"longitude":-74.00034,"latitude":40.743,"category":"Coffee Shop","score":3.0},{"name":"Starbucks","country":"USA","city":"New York","coordinates":{"type":"Point","coordinates":[-73.999567,40.739218]},"longitude":-73.999567,"latitude":40.739218,"category":"Coffee Shop","score":3.0},{"name":"Starbucks","country":"USA","city":"New York","coordinates":{"type":"Point","coordinates":[-74.00261,40.739376]},"longitude":-74.00261,"latitude":40.739376,"category":"Coffee Shop","score":2.0},{"name":"Starbucks","country":"USA","city":"New York","coordinates":{"type":"Point","coordinates":[-74.00293,40.73318]},"longitude":-74.00293,"latitude":40.73318,"category":"Coffee Shop","score":3.0},{"name":"Starbucks","country":"USA","city":"New York","coordinates":{"type":"Point","coordinates":[-74.0013,40.741154]},"longitude":-74.0013,"latitude":40.741154,"category":"Coffee Shop","score":2.0},{"name":"Starbucks","country":"USA","city":"New York","coordinates":{"type":"Point","coordinates":[-73.99874,40.745102]},"longitude":-73.99874,"latitude":40.745102,"category":"Coffee Shop","score":3.0},{"name":"Starbucks","country":"USA","city":"New York","coordinates":{"type":"Point","coordinates":[-74.0062751998,40.7337126023]},"longitude":-74.0062751998,"latitude":40.7337126023,"category":"Coffee Shop","score":3.0},{"name":"Village Community School","country":"USA","city":"New York","coordinates":{"type":"Point","coordinates":[-74.0082311401,40.7334554751]},"longitude":-74.0082311401,"latitude":40.7334554751,"category":"School","score":2.0},{"name":"Greenwich Village School","country":"USA","city":"New York","coordinates":{"type":"Point","coordinates":[-73.9994133208,40.7357224485]},"longitude":-73.9994133208,"latitude":40.7357224485,"category":"School","score":2.0},{"name":"Public School 3","country":"USA","city":"New York","coordinates":{"type":"Point","coordinates":[-74.0063570326,40.73257888]},"longitude":-74.0063570326,"latitude":40.73257888,"category":"School","score":2.0},{"name":"Preschool of America","country":"USA","city":"New York","coordinates":{"type":"Point","coordinates":[-73.9953413079,40.739357915]},"longitude":-73.9953413079,"latitude":40.739357915,"category":"School","score":3.0},{"name":"MS 297 Middle School","country":"USA","city":"New York","coordinates":{"type":"Point","coordinates":[-74.00746,40.731315]},"longitude":-74.00746,"latitude":40.731315,"category":"School","score":3.0},{"name":"Plunge Rooftop Bar & Lounge","country":"USA","city":"New York","coordinates":{"type":"Point","coordinates":[-74.0057329024,40.7399553591]},"longitude":-74.0057329024,"latitude":40.7399553591,"category":"Bar","score":1.0}]